[
    {
        "name": "PUBLIC MEDICAL CLINIC & SURGERY",
        "formatted_address": "664 Yishun Ave 4, #01-275 Block 664, Singapore 760664",
        "lat": 1.420297,
        "lng": 103.841045,
        "place_id": "ChIJRyQfzBQU2jER3yjVEai5o5c",
        "rolled_in_clinics":false
    },
    {
        "name": "PULAU BUKOM CLINIC",
        "formatted_address": "Bukom Island, Singapore",
        "lat": 1.234572,
        "lng": 103.7622268,
        "place_id": "ChIJL52lS_Mc2jERlkQq6UuX9aQ",
        "rolled_in_clinics":false
    },
    {
        "name": "PULSE CLINIC PTE LTD",
        "formatted_address": "38 Beo Cres, Singapore 160038",
        "lat": 1.2884843,
        "lng": 103.82751,
        "place_id": "ChIJa79oTX8Z2jERb-OCWJpZBFw",
        "rolled_in_clinics":false
    },
    {
        "name": "PUNGGOL FAMILY CLINIC PTE. LTD.",
        "formatted_address": "322, #01-03 Sumang Walk, Singapore 820322",
        "lat": 1.4111492,
        "lng": 103.8973615,
        "place_id": "ChIJLy9c9gIW2jER57djcY74UbM",
        "rolled_in_clinics":false
    },
    {
        "name": "PUNGGOL RIPPLES FAMILY CLINIC",
        "formatted_address": "211D Punggol Walk, #01-667, Singapore 824211",
        "lat": 1.4009644,
        "lng": 103.8992195,
        "place_id": "ChIJIwvg0AkW2jERnchAzTJRYG8",
        "rolled_in_clinics":true
    },
    {
        "name": "PURE DENTAL",
        "formatted_address": "Tampines Street 11, #01-140 Block 138, Singapore 521138",
        "lat": 1.3452862,
        "lng": 103.9454857,
        "place_id": "ChIJI9NVYhY92jERuVK3xndqVJY",
        "rolled_in_clinics":false
    },
    {
        "name": "PURE DENTAL STUDIO",
        "formatted_address": "Lor 6 Toa Payoh, #01-572 Block 190, Singapore 310190",
        "lat": 1.3329918,
        "lng": 103.8486522,
        "place_id": "ChIJe2a7xv8W2jERgZkWaRI3IBM",
        "rolled_in_clinics":false
    },
    {
        "name": "PURE MEDICAL AESTHETICS CLINIC",
        "formatted_address": "8 Empress Rd, #01-09, Singapore 260008",
        "lat": 1.3164667,
        "lng": 103.8058649,
        "place_id": "ChIJvZDY6xEa2jERp6axkqbAyx4",
        "rolled_in_clinics":false
    },
    {
        "name": "PURE NZ DENTAL",
        "formatted_address": "62 Jln Jurong Kechil, JK Building, Singapore 598584",
        "lat": 1.3404858,
        "lng": 103.7738925,
        "place_id": "ChIJB5_bF2IQ2jERy7Vymwi_wew",
        "rolled_in_clinics":false
    },
    {
        "name": "PWEE HOCK SWEE",
        "formatted_address": "Mount Elizabeth Medical Centre #11-02, 3 Mount Elizabeth (S)228510, Singapore 228510",
        "lat": 1.3044259,
        "lng": 103.835166,
        "place_id": "ChIJuaCiV5IZ2jERP5q_2Tiz2CE",
        "rolled_in_clinics":false
    },
    {
        "name": "Q & M DENTAL CENTRE (BUGIS)",
        "formatted_address": "200 Victoria Street #02-28 Bugis Junction, Singapore 188021",
        "lat": 1.2991455,
        "lng": 103.8553629,
        "place_id": "ChIJN88SrroZ2jERhDOv6YQOZFU",
        "rolled_in_clinics":false
    },
    {
        "name": "Q & M DENTAL CENTRE (JURONG EAST CENTRAL)",
        "formatted_address": "50, #03-24 Jurong Gateway Rd, Jem, Singapore 608549",
        "lat": 1.3329456,
        "lng": 103.7434334,
        "place_id": "ChIJNWIiegUQ2jEROUyQkEFrEhU",
        "rolled_in_clinics":false
    },
    {
        "name": "Q & M DENTAL CENTRE (NOVENA)",
        "formatted_address": "#02-47 Velocity @ Novena Square 238 Thomson Road Beside office tower, Singapore 307683",
        "lat": 1.3199572,
        "lng": 103.8439076,
        "place_id": "ChIJC2qm8uAZ2jERACE7Q9nv5_s",
        "rolled_in_clinics":false
    },
    {
        "name": "Q & M DENTAL CENTRE (ORCHARD) PTE LTD",
        "formatted_address": "176 Orchard Rd, #03-16/17/18/19 The Centrepoint, Singapore 238843",
        "lat": 1.3020917,
        "lng": 103.8400365,
        "place_id": "ChIJRZ1c0JYZ2jERFBvyFo23FlY",
        "rolled_in_clinics":false
    },
    {
        "name": "Q & M DENTAL CENTRE (RIVER VALLEY) PTE LTD",
        "formatted_address": "19 Hoot Kiam Rd, Singapore 249401",
        "lat": 1.2963149,
        "lng": 103.8300408,
        "place_id": "ChIJLQBMeUUZ2jERKcexEiQ-J3s",
        "rolled_in_clinics":false
    },
    {
        "name": "Q & M DENTAL CENTRE PTE LTD",
        "formatted_address": "180 Kitchener Road #B1 - 13 / 14 City Square Mall, Singapore 208539",
        "lat": 1.3114531,
        "lng": 103.8568331,
        "place_id": "ChIJq6qq-pkZ2jERKVheIpz9U4k",
        "rolled_in_clinics":false
    },
    {
        "name": "Q & M DENTAL SURGERY (ADMIRALTY) PTE LTD",
        "formatted_address": "Block 717, #01-114, Woodlands Drive 70, Singapore 730717",
        "lat": 1.441111,
        "lng": 103.799198,
        "place_id": "ChIJAepNOXUT2jERrmM-ParDjO0",
        "rolled_in_clinics":false
    },
    {
        "name": "Q & M DENTAL SURGERY (ANG MO KIO CENTRAL) PTE LTD",
        "formatted_address": "No. 51, Ang Mo Kio Ave 3, #01-01 51@AMK, Singapore 569922",
        "lat": 1.369309,
        "lng": 103.8472132,
        "place_id": "ChIJg0d_JecW2jERdhXhCJUX4b0",
        "rolled_in_clinics":false
    },
    {
        "name": "Q & M DENTAL SURGERY (BEDOK CENTRAL)",
        "formatted_address": "214 Bedok North Street 1, #01-173, Singapore 460214",
        "lat": 1.325937,
        "lng": 103.932733,
        "place_id": "ChIJkZU1rbQi2jERSma9GEHuna8",
        "rolled_in_clinics":false
    },
    {
        "name": "Q & M DENTAL SURGERY (BEDOK)",
        "formatted_address": "311 New Upper Changi Road, #02-01 Bedok Mall, Singapore 467360",
        "lat": 1.3246761,
        "lng": 103.929248,
        "place_id": "ChIJfwp0G7Mi2jERA7Tqw4NBzs4",
        "rolled_in_clinics":false
    },
    {
        "name": "Q & M DENTAL SURGERY (BISHAN)",
        "formatted_address": "502 Bishan Street 11, #01-350, Singapore 570502",
        "lat": 1.3485815,
        "lng": 103.8481523,
        "place_id": "ChIJAzGKSBQX2jEROaromalyQyY",
        "rolled_in_clinics":false
    },
    {
        "name": "Q & M DENTAL SURGERY (BOON LAY MRT)",
        "formatted_address": "301 Boon Lay Way, #01-05 Boon Lay MRT Station, Singapore 649846",
        "lat": 1.3386122,
        "lng": 103.7060998,
        "place_id": "ChIJTfAhLO0P2jER6W_QkGD_si4",
        "rolled_in_clinics":false
    },
    {
        "name": "Q & M DENTAL SURGERY (BRADDELL)",
        "formatted_address": "Lor 1 Toa Payoh, #01-360 Block 111, Singapore 310111",
        "lat": 1.3412293,
        "lng": 103.8454701,
        "place_id": "ChIJvU_FPWoX2jER9Og7ftqZaEA",
        "rolled_in_clinics":false
    },
    {
        "name": "Q & M DENTAL SURGERY (BT BATOK CENTRAL)",
        "formatted_address": "Blk 634 Bukit Batok Central, #01-112, Singapore 650634",
        "lat": 1.3494848,
        "lng": 103.7513932,
        "place_id": "ChIJnaS2Qj8Q2jERYoz_alB8lI4",
        "rolled_in_clinics":false
    },
    {
        "name": "Q & M DENTAL SURGERY (BT BATOK) PTE LTD",
        "formatted_address": "#01-252 Bukit Batok Street 11, Blk 151, Singapore 650151",
        "lat": 1.3487345,
        "lng": 103.7442475,
        "place_id": "ChIJnaCiTzwQ2jERtf7KQ8ekym8",
        "rolled_in_clinics":false
    },
    {
        "name": "Q & M DENTAL SURGERY (BT PANJANG) PTE LTD",
        "formatted_address": "257 Bangkit Rd, Singapore 670257",
        "lat": 1.3785663,
        "lng": 103.7727534,
        "place_id": "ChIJv9jMMqcR2jERw-olIPP_gts",
        "rolled_in_clinics":false
    },
    {
        "name": "Q & M DENTAL SURGERY (BT TIMAH) PTE LTD",
        "formatted_address": "3a Cheong Chin Nam Rd, Singapore 599728",
        "lat": 1.3424189,
        "lng": 103.7753002,
        "place_id": "ChIJAQAAEIoQ2jERzOlhZSG_pZs",
        "rolled_in_clinics":false
    },
    {
        "name": "Q & M DENTAL SURGERY (BUANGKOK MRT)",
        "formatted_address": "10 Sengkang Central #01-01 Buangkok MRT Station (Exit A, Singapore 545061",
        "lat": 1.3832926,
        "lng": 103.8929231,
        "place_id": "ChIJx3VcYRUW2jERThYPRBcH_3E",
        "rolled_in_clinics":false
    },
    {
        "name": "Q & M DENTAL SURGERY (CLEMENTI CENTRAL) PTE LTD",
        "formatted_address": "#01-291 Blk, 450 Clementi Ave 3, Singapore 120450",
        "lat": 1.3135086,
        "lng": 103.7654817,
        "place_id": "ChIJI8QBco4a2jERUrS3ThKnKIk",
        "rolled_in_clinics":false
    },
    {
        "name": "Q & M DENTAL SURGERY (CLEMENTI WEST) PTE LTD",
        "formatted_address": "#01-206 Clementi West Street 2, Block 725, Singapore 120725",
        "lat": 1.303395,
        "lng": 103.763811,
        "place_id": "ChIJweI9GVAb2jERL66ZYN_DhF0",
        "rolled_in_clinics":false
    },
    {
        "name": "Q & M DENTAL SURGERY (CLEMENTI) PTE LTD",
        "formatted_address": "321, #02-02 Clementi Ave 3, 321, Singapore 129905",
        "lat": 1.3119864,
        "lng": 103.7650332,
        "place_id": "ChIJgfX_R44a2jERw-welbMRSJ8",
        "rolled_in_clinics":false
    },
    {
        "name": "Q & M DENTAL SURGERY (ELIAS MALL) PTE LTD",
        "formatted_address": "#02-308 Elias Mall, 625 Elias Rd, Singapore 510625",
        "lat": 1.3785264,
        "lng": 103.9418846,
        "place_id": "ChIJpZuslr492jERR0XP6hMzFKk",
        "rolled_in_clinics":false
    },
    {
        "name": "Q & M DENTAL SURGERY (EUNOS MRT)",
        "formatted_address": "30 Eunos Cres, #01-14/15, Singapore 409423",
        "lat": 1.319782,
        "lng": 103.902892,
        "place_id": "ChIJA08Q0gQY2jERM7Mcl84tcIA",
        "rolled_in_clinics":false
    },
    {
        "name": "Q & M DENTAL SURGERY (GOMBAK MRT) PTE LTD",
        "formatted_address": "802 Bukit Batok West Ave 5, #01-09 Bukit Gombak MRT Station, Singapore 659083",
        "lat": 1.3589073,
        "lng": 103.7518214,
        "place_id": "ChIJ____FzYQ2jERUgK2wD2vsXQ",
        "rolled_in_clinics":false
    },
    {
        "name": "Q & M DENTAL SURGERY (GOMBAK) PTE LTD",
        "formatted_address": "371 Bukit Batok Street 31, Block 371, Singapore 650371",
        "lat": 1.3593876,
        "lng": 103.7507293,
        "place_id": "ChIJ3zQuDzMQ2jERLjvOxBWuBIA",
        "rolled_in_clinics":true
    },
    {
        "name": "Q & M DENTAL SURGERY (HAVELOCK ROAD)",
        "formatted_address": "51 Havelock Rd, #01-03 Havelock View, Singapore 161051",
        "lat": 1.2899302,
        "lng": 103.8277208,
        "place_id": "ChIJt3LJH1cZ2jERkQwAUMykASQ",
        "rolled_in_clinics":false
    },
    {
        "name": "Q & M DENTAL SURGERY (HOLLAND VILLAGE)",
        "formatted_address": "200 Holland Ave, #B1-19 Holland Village MRT Station, Singapore 278995",
        "lat": 1.3111352,
        "lng": 103.7961393,
        "place_id": "ChIJWRkNZWsa2jERlppN4vyeLXI",
        "rolled_in_clinics":false
    },
    {
        "name": "Q & M DENTAL SURGERY (HOUGANG CENTRAL) PTE LTD",
        "formatted_address": "Hougang Central, #01-230/232 Blk 810, Singapore 530810",
        "lat": 1.3715423,
        "lng": 103.8933293,
        "place_id": "ChIJn7DHqDcW2jERnsZa3sddJ7M",
        "rolled_in_clinics":false
    },
    {
        "name": "Q & M DENTAL SURGERY (HOUGANG MALL) PTE LTD",
        "formatted_address": "90 Hougang Avenue 10 #04-07 Hougang Mall, Singapore 538766",
        "lat": 1.3730419,
        "lng": 103.8942983,
        "place_id": "ChIJATDQgzcW2jERD4faTLQEmzs",
        "rolled_in_clinics":false
    },
    {
        "name": "Q & M DENTAL SURGERY (HOUGANG)",
        "formatted_address": "1187 Upper Serangoon Rd, #01-55 The Midtown, Singapore 533971",
        "lat": 1.3704982,
        "lng": 103.8953563,
        "place_id": "ChIJcWmLJDcW2jERpy4RdQCFNLU",
        "rolled_in_clinics":false
    },
    {
        "name": "Q & M DENTAL SURGERY (JELAPANG) PTE LTD",
        "formatted_address": "524A Jelapang Rd, Singapore 671524",
        "lat": 1.3849826,
        "lng": 103.7664577,
        "place_id": "ChIJAQAAAJkR2jERpvhKJPFgVWU",
        "rolled_in_clinics":false
    },
    {
        "name": "Q & M DENTAL SURGERY (KALLANG MRT) PTE LTD",
        "formatted_address": "5 Sims Avenue, #01-02 Kallang MRT Station, Singapore 387405",
        "lat": 1.311472,
        "lng": 103.871353,
        "place_id": "ChIJAQAAcDQY2jERyW3kw8WC8eo",
        "rolled_in_clinics":false
    },
    {
        "name": "Q & M DENTAL SURGERY (KHATIB) PTE LTD",
        "formatted_address": "Yishun Ring Road #01-3613, Blk 846, Singapore 760846",
        "lat": 1.4169833,
        "lng": 103.8345608,
        "place_id": "ChIJHeD_PxIU2jERyUfuLvo9pNE",
        "rolled_in_clinics":false
    },
    {
        "name": "Q & M DENTAL SURGERY (KOVAN) PTE LTD",
        "formatted_address": "203, #01-87 Hougang Street 21, Singapore 530203",
        "lat": 1.3581182,
        "lng": 103.8844493,
        "place_id": "ChIJF0LSPqEX2jERnodmN7LxTnw",
        "rolled_in_clinics":false
    },
    {
        "name": "Q & M DENTAL SURGERY (MARINE PARADE)",
        "formatted_address": "#01-664 Marine Parade Central, Blk 85, Singapore 440085",
        "lat": 1.3017029,
        "lng": 103.9062154,
        "place_id": "ChIJeSijb3EY2jERDIO7P2mgzMc",
        "rolled_in_clinics":false
    },
    {
        "name": "Q & M DENTAL SURGERY (MARSILING) PTE LTD",
        "formatted_address": "304 Woodlands Street 31, #01-123, Singapore 730304",
        "lat": 1.4298927,
        "lng": 103.7737696,
        "place_id": "ChIJq4DpjK0T2jERodkQPOGLCb8",
        "rolled_in_clinics":false
    },
    {
        "name": "Q & M DENTAL SURGERY (NOVENA)",
        "formatted_address": "238 Thomson Rd, Singapore 307683",
        "lat": 1.3201359,
        "lng": 103.8438561,
        "place_id": "ChIJ-3O7cecZ2jER1hWkjFVRKFM",
        "rolled_in_clinics":false
    },
    {
        "name": "Q & M DENTAL SURGERY (OLD AIRPORT RD) PTE LTD",
        "formatted_address": "39 Jln Tiga, Block 39, Singapore 390039",
        "lat": 1.3077569,
        "lng": 103.8850026,
        "place_id": "ChIJJw-iqTgY2jER7crM2Mm-_fg",
        "rolled_in_clinics":false
    },
    {
        "name": "Q & M DENTAL SURGERY (PASIR RIS) PTE LTD",
        "formatted_address": "1 Pasir Ris Central Street 3, #05 - 08 / 09, Singapore 518457",
        "lat": 1.3725563,
        "lng": 103.9495665,
        "place_id": "ChIJX_X__6892jER8N3AYWQH7wc",
        "rolled_in_clinics":false
    },
    {
        "name": "Q & M DENTAL SURGERY (PAYA LEBAR)",
        "formatted_address": "10 Paya Lebar Road, #04-27 Paya Lebar Quarter, Singapore 409057",
        "lat": 1.316622,
        "lng": 103.8924786,
        "place_id": "ChIJf_I-M6sZ2jERDU25PlVBi9A",
        "rolled_in_clinics":false
    },
    {
        "name": "Q & M DENTAL SURGERY (POTONG PASIR)",
        "formatted_address": "51 Upper Serangoon Rd, #03-10/11 The Poiz Centre, Singapore 347697",
        "lat": 1.3310243,
        "lng": 103.8678056,
        "place_id": "ChIJQ0SYnyMX2jERtEiimnbImBU",
        "rolled_in_clinics":false
    },
    {
        "name": "Q & M DENTAL SURGERY (PUNGGOL MRT)",
        "formatted_address": "70 Punggol Central, #01-07, Singapore 828868",
        "lat": 1.4051007,
        "lng": 103.9024291,
        "place_id": "ChIJo02pr-QV2jERlkouWDPrTvE",
        "rolled_in_clinics":false
    },
    {
        "name": "Q & M DENTAL SURGERY (REDHILL MRT) PTE LTD",
        "formatted_address": "920 Tiong Bahru Rd, Singapore 158792",
        "lat": 1.289788,
        "lng": 103.816615,
        "place_id": "ChIJ____x9Qb2jERUgV_FX5dF14",
        "rolled_in_clinics":false
    },
    {
        "name": "Q & M DENTAL SURGERY (SELETAR)",
        "formatted_address": "33 Sengkang West Ave, #04-16 The Seletar Mall, Singapore 797653",
        "lat": 1.391725,
        "lng": 103.8760629,
        "place_id": "ChIJf45Y0GQW2jERy0M2K2dtkv4",
        "rolled_in_clinics":false
    },
    {
        "name": "Q & M DENTAL SURGERY (SEMBAWANG MRT) PTE LTD",
        "formatted_address": "11 Canberra Rd, Singapore 759775",
        "lat": 1.44899,
        "lng": 103.819745,
        "place_id": "ChIJp2sHpYIU2jEReelW-S4wW10",
        "rolled_in_clinics":false
    },
    {
        "name": "Q & M DENTAL SURGERY (SERANGOON CENTRAL)",
        "formatted_address": "#04-25 NEX, 23 Serangoon Central, Singapore 556083",
        "lat": 1.3506325,
        "lng": 103.8727866,
        "place_id": "ChIJ____r6YX2jERBOMsG4WAlus",
        "rolled_in_clinics":false
    },
    {
        "name": "Q & M DENTAL SURGERY (SERANGOON CENTRAL) PTE LTD",
        "formatted_address": "Blk 264 Serangoon Central Drive #01-235, Singapore 550264",
        "lat": 1.3528337,
        "lng": 103.872341,
        "place_id": "ChIJ2XhAX6YX2jERGCGJhH01ptU",
        "rolled_in_clinics":false
    },
    {
        "name": "Q & M DENTAL SURGERY (SERANGOON NORTH) PTE LTD",
        "formatted_address": "Serangoon North Ave 1, #01-536 Blk 153, Singapore 550153",
        "lat": 1.3702291,
        "lng": 103.8722427,
        "place_id": "ChIJ87EQ6lYW2jERz5k35BQ0-yk",
        "rolled_in_clinics":false
    },
    {
        "name": "Q & M DENTAL SURGERY (SERANGOON) PTE LTD",
        "formatted_address": "Blk 261, #01-29 Serangoon Central Dr, Singapore 550261",
        "lat": 1.3539372,
        "lng": 103.872293,
        "place_id": "ChIJNX6RQKYX2jERrkhVdeMR_B0",
        "rolled_in_clinics":false
    },
    {
        "name": "Q & M DENTAL SURGERY (SIMEI MRT)",
        "formatted_address": "30 Simei Street 3, #01-09 Simei MRT Station, Singapore 529888",
        "lat": 1.3430733,
        "lng": 103.9534572,
        "place_id": "ChIJOZNzOCI92jERrbjVK4pz3Kc",
        "rolled_in_clinics":false
    },
    {
        "name": "Q & M DENTAL SURGERY (TAMPINES CENTRAL)",
        "formatted_address": "10 Tampines Central 1, #04-18 / 19, Singapore 529536",
        "lat": 1.354212,
        "lng": 103.9450352,
        "place_id": "ChIJeftUIA492jERzS0XyzNQWsM",
        "rolled_in_clinics":false
    },
    {
        "name": "Q & M DENTAL SURGERY (TAMPINES MRT)",
        "formatted_address": "20 Tampines Central 1, Singapore 529538",
        "lat": 1.353448,
        "lng": 103.945119,
        "place_id": "ChIJY743wxE92jERH88xoaADvZo",
        "rolled_in_clinics":false
    },
    {
        "name": "Q & M DENTAL SURGERY (TAMPINES)",
        "formatted_address": "2 Tampines Central 5, #03-16 Century Square, Singapore 529509",
        "lat": 1.3521456,
        "lng": 103.9439207,
        "place_id": "ChIJpUqUIGE92jERCyt7Gmes4zY",
        "rolled_in_clinics":false
    },
    {
        "name": "Q & M DENTAL SURGERY (TANJONG KATONG) PTE LTD",
        "formatted_address": "11 Tanjong Katong Rd, #B1-13, Kinex 437157",
        "lat": 1.3149868,
        "lng": 103.8946433,
        "place_id": "ChIJPVdhKvQZ2jERCKp0PnSIQD8",
        "rolled_in_clinics":false
    },
    {
        "name": "Q & M DENTAL SURGERY (TIONG BAHRU) PTE LTD",
        "formatted_address": "18 Jln Membina, Singapore 164018",
        "lat": 1.2857124,
        "lng": 103.8268301,
        "place_id": "ChIJPb_VtX4Z2jERFjvNFoCR4bE",
        "rolled_in_clinics":false
    },
    {
        "name": "Q & M DENTAL SURGERY (TOA PAYOH CENTRAL) PTE LTD",
        "formatted_address": "177 Toa Payoh Central, #01-150, Singapore 310177",
        "lat": 1.33388,
        "lng": 103.84886,
        "place_id": "ChIJ0x_lT2YX2jERhbOraSXTu_g",
        "rolled_in_clinics":false
    },
    {
        "name": "Q & M DENTAL SURGERY (TOA PAYOH) PTE LTD",
        "formatted_address": "190 Lor 6 Toa Payoh, Singapore",
        "lat": 1.3330122,
        "lng": 103.8491698,
        "place_id": "ChIJNadbjWYX2jERzHWRhQz7lLo",
        "rolled_in_clinics":false
    },
    {
        "name": "Q & M DENTAL SURGERY (TOH YI)",
        "formatted_address": "19 Toh Yi Dr, #01-123, Singapore 590019",
        "lat": 1.339938,
        "lng": 103.7739506,
        "place_id": "ChIJMdBuFWIQ2jERZGURd9Qqvf4",
        "rolled_in_clinics":false
    },
    {
        "name": "Q & M DENTAL SURGERY (TOWNER ROAD)",
        "formatted_address": "Towner Rd, #01-250 Block 102, Singapore 322102",
        "lat": 1.3206918,
        "lng": 103.8620709,
        "place_id": "ChIJZVVH79AZ2jERecAp5nvBLzM",
        "rolled_in_clinics":false
    },
    {
        "name": "Q & M DENTAL SURGERY (WOODLANDS)",
        "formatted_address": "Blk 573, Woodlands Drive 16, #01-07, Singapore 730573",
        "lat": 1.4311165,
        "lng": 103.7984587,
        "place_id": "ChIJswMWne8T2jEROKm1Jn3Ones",
        "rolled_in_clinics":false
    },
    {
        "name": "Q & M DENTAL SURGERY (YEW TEE)",
        "formatted_address": "21 Choa Chu Kang North 6, #01-32 Yew Tee Point, Singapore 689578",
        "lat": 1.397281,
        "lng": 103.746697,
        "place_id": "ChIJQ7Yo-fMR2jER20KXRGFS-3A",
        "rolled_in_clinics":false
    },
    {
        "name": "Q & M DENTAL SURGERY (YISHUN CENTRAL)",
        "formatted_address": "930 Yishun Avenue 2 #03-26 Northpoint City North Wing, Singapore 769098",
        "lat": 1.42959,
        "lng": 103.8357694,
        "place_id": "ChIJIbGU73sU2jERBqzshQ6cfYk",
        "rolled_in_clinics":false
    },
    {
        "name": "Q & M DENTAL SURGERY (YISHUN CENTRAL) PTE LTD",
        "formatted_address": "743 Yishun Ave 5, Singapore 760743",
        "lat": 1.4299137,
        "lng": 103.8336744,
        "place_id": "ChIJq6qqmm8U2jER3Z0qiizX4fk",
        "rolled_in_clinics":false
    },
    {
        "name": "Q & M DENTAL SURGERY (YISHUN RING ROAD)",
        "formatted_address": "598 Yishun Ring Rd, #B1-10 Wisteria Mall, Singapore 768698",
        "lat": 1.4182043,
        "lng": 103.8412627,
        "place_id": "ChIJ0-Wu_NMV2jERNKP3bOwZIVw",
        "rolled_in_clinics":false
    },
    {
        "name": "Q & M MEDICAL & AESTHETIC CLINIC (FARRER PARK)",
        "formatted_address": "180 Kitchener Rd, #B1-13 City Square Mall, Singapore 208539",
        "lat": 1.3113982,
        "lng": 103.8565897,
        "place_id": "ChIJa3_B3sUZ2jEROF-yVcPVhDU",
        "rolled_in_clinics":false
    },
    {
        "name": "Q & M MEDICAL & AESTHETIC CLINIC (TAMPINES CENTRAL) PTE. LTD.",
        "formatted_address": "10 Tampines Central 1, #04-18/19, Singapore 529536",
        "lat": 1.3542027,
        "lng": 103.9451079,
        "place_id": "ChIJnS9VIA492jEReapcRLt6osg",
        "rolled_in_clinics":false
    },
    {
        "name": "Q & M MEDICAL CLINIC (BUANGKOK MRT) PTE. LTD.",
        "formatted_address": "10 Sengkang Central, #01-02, Singapore 545061",
        "lat": 1.3829163,
        "lng": 103.8933522,
        "place_id": "ChIJmf5ZheAX2jERklUinVKgGXU",
        "rolled_in_clinics":false
    },
    {
        "name": "Q & M MEDICAL CLINIC (BUKIT BATOK)",
        "formatted_address": "#01-252 Bukit Batok Street 11, Blk 151, Singapore 650151",
        "lat": 1.3486969,
        "lng": 103.7442571,
        "place_id": "ChIJZ9aQTzwQ2jERhzxU16zJzzc",
        "rolled_in_clinics":false
    },
    {
        "name": "Q & M MEDICAL FAMILY CLINIC",
        "formatted_address": "Blk 261 Serangoon Central Dr, #01-29, Singapore 550261",
        "lat": 1.3536883,
        "lng": 103.8725101,
        "place_id": "ChIJy3-RQKYX2jERNGuPNAigih0",
        "rolled_in_clinics":false
    },
    {
        "name": "Q & M MUTUAL HEALTHCARE MEDICAL CLINIC",
        "formatted_address": "70 Punggol Central, #01-07, Singapore 828868",
        "lat": 1.4054698,
        "lng": 103.9025367,
        "place_id": "ChIJOXizU-MV2jERGGta5DooU5Q",
        "rolled_in_clinics":false
    },
    {
        "name": "QUAH HAK MIEN COLORECTAL CENTRE PTE. LTD.",
        "formatted_address": "6 Napier Rd, Singapore 258499",
        "lat": 1.307592,
        "lng": 103.8199225,
        "place_id": "ChIJ30VnOSAa2jERTQBomx9BtmY",
        "rolled_in_clinics":false
    },
    {
        "name": "QUANTUM MEDICAL CLINIC",
        "formatted_address": "12 Kallang Ave, #02-05/06 Aperia Mall, Singapore 339511",
        "lat": 1.3096716,
        "lng": 103.8644238,
        "place_id": "ChIJ6xSP470Z2jERrZmoQLc7OJo",
        "rolled_in_clinics":false
    },
    {
        "name": "QUEENSTOWN POLYCLINIC",
        "formatted_address": "580 Stirling Rd, Singapore 148958",
        "lat": 1.2984307,
        "lng": 103.8010528,
        "place_id": "ChIJXbRXBToa2jERH8dVy5KpwXs",
        "rolled_in_clinics":false
    },
    {
        "name": "QUEK & MARCOU DEVELOPMENTAL AND BEHAVIOURAL PAEDIATRICS CLINIC",
        "formatted_address": "10 Sinaran Dr, #10-12, Singapore 307506",
        "lat": 1.3207786,
        "lng": 103.8442073,
        "place_id": "ChIJGYoTXecZ2jERX72Qvuee9G0",
        "rolled_in_clinics":false
    },
    {
        "name": "QUEK & ME DENTAL SURGERY",
        "formatted_address": "Choa Chu Kang Central, #01-199 Block 225, Singapore 680225",
        "lat": 1.3813016,
        "lng": 103.7450446,
        "place_id": "ChIJm-xXtcMR2jER6a99fYZXoOE",
        "rolled_in_clinics":false
    },
    {
        "name": "RADHIKA BREAST & GENERAL SURGERY",
        "formatted_address": "1 Farrer Park Station Rd, #14-20 Connexion, Singapore 217562",
        "lat": 1.3127619,
        "lng": 103.8545562,
        "place_id": "ChIJd9q126UZ2jER-Hh7cjPR4zY",
        "rolled_in_clinics":false
    },
    {
        "name": "RADHIKA BREAST & GENERAL SURGERY",
        "formatted_address": "Parkway East Medical Centre, 319 Joo Chiat Pl, #02-03, Singapore 427989",
        "lat": 1.3151919,
        "lng": 103.9090302,
        "place_id": "ChIJr2kntQsZ2jERyb8g4Kj3NBQ",
        "rolled_in_clinics":false
    },
    {
        "name": "RADIANCE DENTAL CARE @ DAWSON",
        "formatted_address": "57 Dawson Rd, Singapore 142057",
        "lat": 1.2927082,
        "lng": 103.8110301,
        "place_id": "ChIJiRcBky0a2jERvrZmJHadnc0",
        "rolled_in_clinics":false
    },
    {
        "name": "RADIANT MEDICAL + AESTHETIC CENTRE",
        "formatted_address": "810 Hougang Central, #01-220, Singapore 530810",
        "lat": 1.3716219,
        "lng": 103.893653,
        "place_id": "ChIJc0iBKlsW2jERW5GmlS3tHZk",
        "rolled_in_clinics":false
    },
    {
        "name": "RADIOLOGIQ MEDICAL CENTRE",
        "formatted_address": "1 Tuas S Ln, Singapore 637301",
        "lat": 1.2829074,
        "lng": 103.6375303,
        "place_id": "ChIJeXeYnSkE2jERbwYAwzxqVrk",
        "rolled_in_clinics":false
    },
    {
        "name": "RADIUM MEDICAL AESTHETICS",
        "formatted_address": "3 Temasek Boulevard, North Wing, Tower 2, #03-325/326 Suntec City Mall, Singapore 038983",
        "lat": 1.2960179,
        "lng": 103.8586827,
        "place_id": "ChIJJaWNB68Z2jER3gtMoWOGVz0",
        "rolled_in_clinics":false
    },
    {
        "name": "RADLINK PET AND CARDIAC IMAGING CENTRE PTE LTD",
        "formatted_address": "290 Orchard Rd, #08-05/06 Paragon Medical, Singapore 238859",
        "lat": 1.3039054,
        "lng": 103.8355763,
        "place_id": "ChIJl_sOMpIZ2jER93iC8AEqVc4",
        "rolled_in_clinics":false
    },
    {
        "name": "RAFFLES EXECUTIVE MEDICAL CENTRE",
        "formatted_address": "585 North Bridge Rd, Level 12 Raffles Hospital, Singapore 188770",
        "lat": 1.301349,
        "lng": 103.85715,
        "place_id": "ChIJ7xcJkLAZ2jERZnmNdqp-8QU",
        "rolled_in_clinics":true
    },
    {
        "name": "RAFFLESCHILDREN'SCENTRE",
        "formatted_address": "10 Tampines Central 1, #04-33, Singapore 529536",
        "lat": 1.35414,
        "lng": 103.944947,
        "place_id": "ChIJGQNAIA492jER5nqb3c0qH_U",
        "rolled_in_clinics":false
    },
    {
        "name": "RAFFLESDENTAL",
        "formatted_address": "65 Airport Boulevard, #B2-01 Passenger Terminal 3, Singapore Changi Airport, Singapore 819663",
        "lat": 1.355955,
        "lng": 103.986809,
        "place_id": "ChIJY2hsL3A82jERVm2v7sg6d6w",
        "rolled_in_clinics":false
    },
    {
        "name": "RAFFLESDENTAL",
        "formatted_address": "10 Tampines Central 1, #04-33, Singapore 529536",
        "lat": 1.3542245,
        "lng": 103.9449976,
        "place_id": "ChIJ____IA492jER6HqFdSDTUfw",
        "rolled_in_clinics":false
    },
    {
        "name": "RAFFLESDENTAL",
        "formatted_address": "1 Woodlands Square, #05-01A Causeway Point, Singapore 738099",
        "lat": 1.436056,
        "lng": 103.7863858,
        "place_id": "ChIJzdJAmqgT2jERUuftHyS9rqc",
        "rolled_in_clinics":false
    },
    {
        "name": "RAFFLESDENTAL",
        "formatted_address": "50 Raffles Place, #01-02A/C Singapore Land Tower, Singapore 048623",
        "lat": 1.2849198,
        "lng": 103.8520587,
        "place_id": "ChIJBdSqpRQZ2jERPPuSYAiVuvc",
        "rolled_in_clinics":false
    },
    {
        "name": "RAFFLESDENTAL",
        "formatted_address": "1 Pasir Ris Central Street 3, #04-19 White Sands, Singapore 518457",
        "lat": 1.372455,
        "lng": 103.949747,
        "place_id": "ChIJDQ5i_q892jEREshja_0JOeU",
        "rolled_in_clinics":false
    },
    {
        "name": "RAFFLESDENTAL",
        "formatted_address": "12 Marina Blvd, Singapore 018982",
        "lat": 1.2790221,
        "lng": 103.8544967,
        "place_id": "ChIJj1FKMw4Z2jERUDz1GxgD08o",
        "rolled_in_clinics":false
    },
    {
        "name": "RAFFLESDENTAL",
        "formatted_address": "6 Raffles Boulevard, #01-212 Marina Square, Singapore 039594",
        "lat": 1.290989,
        "lng": 103.857422,
        "place_id": "ChIJAQAAZKgZ2jER8uOmkY-VAHA",
        "rolled_in_clinics":false
    },
    {
        "name": "RAFFLESDENTAL",
        "formatted_address": "118 Holland Avenue #05-02/03/04 Raffles, Singapore 278997",
        "lat": 1.3105763,
        "lng": 103.7961869,
        "place_id": "ChIJkzv8Amsa2jERg3N8TR_Du8k",
        "rolled_in_clinics":false
    },
    {
        "name": "RAFFLESDENTAL",
        "formatted_address": "1 Sengkang Square, 04-09, Singapore 545078",
        "lat": 1.3923825,
        "lng": 103.8951314,
        "place_id": "ChIJMWB1iQ0W2jERlQpd9J7Gi2o",
        "rolled_in_clinics":false
    },
    {
        "name": "RAFFLESDENTAL",
        "formatted_address": "1 Tampines Walk, Singapore",
        "lat": 1.3529604,
        "lng": 103.9403451,
        "place_id": "ChIJmYE6fhI92jERK2lpT8lIRgY",
        "rolled_in_clinics":false
    },
    {
        "name": "RAFFLESDENTAL",
        "formatted_address": "17 Petir Road, Hillion Mall, #02-08, Singapore 678278",
        "lat": 1.3787698,
        "lng": 103.7624498,
        "place_id": "ChIJ-YA8prwR2jERa9ifPhrv8Ho",
        "rolled_in_clinics":false
    },
    {
        "name": "RAFFLESDENTAL",
        "formatted_address": "585 North Bridge Rd, Singapore 188770",
        "lat": 1.3011904,
        "lng": 103.8572692,
        "place_id": "ChIJ____T0Ua2jERhJf9ckfXimU",
        "rolled_in_clinics":false
    },
    {
        "name": "RAFFLESDENTAL",
        "formatted_address": "1 Scotts Road Unit #04 - 09 / 14, Singapore 228208",
        "lat": 1.3066236,
        "lng": 103.8314061,
        "place_id": "ChIJe2sIc40Z2jERdygIlaiIxg4",
        "rolled_in_clinics":false
    },
    {
        "name": "RAFFLESHEALTHSCREENERS",
        "formatted_address": "83 Punggol Central, Singapore 828761",
        "lat": 1.40669,
        "lng": 103.9021738,
        "place_id": "ChIJLTCPpuQV2jERYMYF_2uprDE",
        "rolled_in_clinics":false
    },
    {
        "name": "RAFFLESIA DENTAL SURGERY",
        "formatted_address": "100, #01-04A Jln Sultan, Sultan Plaza, Singapore 199001",
        "lat": 1.3033612,
        "lng": 103.8616449,
        "place_id": "ChIJF2RjrrYZ2jERTbaNK8D6CoQ",
        "rolled_in_clinics":false
    },
    {
        "name": "RAFFLESJAPANESEDENTAL",
        "formatted_address": "1 Scotts Rd, Singapore 228208",
        "lat": 1.3062718,
        "lng": 103.8318994,
        "place_id": "ChIJdVshco0Z2jER5H03m10YGas",
        "rolled_in_clinics":false
    },
    {
        "name": "RAFFLESMEDICAL",
        "formatted_address": "1 Woodlands Square, #05-20, Singapore 738099",
        "lat": 1.4361609,
        "lng": 103.7863199,
        "place_id": "ChIJJ2dCl6gT2jERIwqQfMejIlU",
        "rolled_in_clinics":false
    },
    {
        "name": "RAFFLESMEDICAL",
        "formatted_address": "55 Siglap Rd, #02-11/12 Siglap Centre, Singapore 455871",
        "lat": 1.31267,
        "lng": 103.923153,
        "place_id": "ChIJWfa9h6Qi2jERlrgVLn4JAe8",
        "rolled_in_clinics":false
    },
    {
        "name": "RAFFLESMEDICAL",
        "formatted_address": "â€‹Blk 283 Bishan Street 22, #01-177, Singapore 570283",
        "lat": 1.358904,
        "lng": 103.8448076,
        "place_id": "ChIJIUkbqhgX2jERBKulOS5cwbw",
        "rolled_in_clinics":false
    },
    {
        "name": "RAFFLESMEDICAL",
        "formatted_address": "21 Choa Chu Kang Ave 4, #B1 - 07A, Singapore 689812",
        "lat": 1.3847342,
        "lng": 103.7448635,
        "place_id": "ChIJs5CBlukR2jERXsX8Fr-f478",
        "rolled_in_clinics":false
    },
    {
        "name": "RAFFLESMEDICAL",
        "formatted_address": "252 North Bridge Rd, #02 - 17, Singapore 179103",
        "lat": 1.2943964,
        "lng": 103.8529515,
        "place_id": "ChIJp4zYJ6QZ2jERZN_zSYl9J10",
        "rolled_in_clinics":false
    },
    {
        "name": "RAFFLESMEDICAL",
        "formatted_address": "Blk 259 Pasir Ris Street 21, #02-33 Loyang Point, Singapore 510259",
        "lat": 1.3664797,
        "lng": 103.9644911,
        "place_id": "ChIJL7ZNaFQ82jERG0nE6vQksRM",
        "rolled_in_clinics":false
    },
    {
        "name": "RAFFLESMEDICAL",
        "formatted_address": "#01-267 Jurong Gateway Rd, Blk 131, Singapore",
        "lat": 1.3343739,
        "lng": 103.7396861,
        "place_id": "ChIJB45meQUQ2jERP7kXkbX7IT4",
        "rolled_in_clinics":false
    },
    {
        "name": "RAFFLESMEDICAL",
        "formatted_address": "#26-053 Departure Hall, Singapore Changi Airport Passenger Terminal Building 2, Singapore 819643",
        "lat": 1.355456,
        "lng": 103.989737,
        "place_id": "ChIJh3-HlxAY2jERjoHXZVhIupY",
        "rolled_in_clinics":true
    },
    {
        "name": "RAFFLESMEDICAL",
        "formatted_address": "Blk 722 Ang Mo Kio Avenue 8, #01-2825, Singapore 560722",
        "lat": 1.372236,
        "lng": 103.847521,
        "place_id": "ChIJ1dN9yucW2jERY43uL_D7f-o",
        "rolled_in_clinics":false
    },
    {
        "name": "RAFFLESMEDICAL",
        "formatted_address": "50 Raffles Place, #01-02C Singapore Land Tower, Singapore 048623",
        "lat": 1.2843038,
        "lng": 103.8522371,
        "place_id": "ChIJE_EqkLAZ2jERsbHTUHrMA7A",
        "rolled_in_clinics":false
    },
    {
        "name": "RAFFLESMEDICAL",
        "formatted_address": "809 Hougang Central, #01-180, Singapore 530809",
        "lat": 1.3712468,
        "lng": 103.8939856,
        "place_id": "ChIJn7DHqDcW2jERMYgjyehk7U8",
        "rolled_in_clinics":false
    },
    {
        "name": "RAFFLESMEDICAL",
        "formatted_address": "51 Anson Rd, #01-51 Anson Centre, Singapore 079904",
        "lat": 1.274632,
        "lng": 103.845733,
        "place_id": "ChIJeVXDpBQZ2jER6QXjqBOkNfc",
        "rolled_in_clinics":false
    },
    {
        "name": "RAFFLESMEDICAL",
        "formatted_address": "6 Raffles Boulevard, #01-212 Marina Square, Singapore 039594",
        "lat": 1.2910519,
        "lng": 103.85891,
        "place_id": "ChIJ1ahTUagZ2jERvs4rmgeR9UM",
        "rolled_in_clinics":false
    },
    {
        "name": "RAFFLESMEDICAL",
        "formatted_address": "Blk 177 Toa Payoh Central, #01-170, Singapore 310177",
        "lat": 1.3338747,
        "lng": 103.8496671,
        "place_id": "ChIJ-eEQXGYX2jERG0--TRHkM24",
        "rolled_in_clinics":false
    },
    {
        "name": "RAFFLESMEDICAL",
        "formatted_address": "168 Robinson Rd, #02-02 Capital Tower, Singapore 068912",
        "lat": 1.277649,
        "lng": 103.8474948,
        "place_id": "ChIJac1W_hIZ2jERulM70NDYZ-A",
        "rolled_in_clinics":false
    },
    {
        "name": "RAFFLESMEDICAL",
        "formatted_address": "370 Alexandra Rd, B1-41, Singapore 159953",
        "lat": 1.2884562,
        "lng": 103.8049508,
        "place_id": "ChIJ6wdksMwb2jERtaqChiFaBUI",
        "rolled_in_clinics":false
    },
    {
        "name": "RAFFLESMEDICAL",
        "formatted_address": "65 Airport Boulevard, #B2-01 Singapore Changi Airport, Singapore 819663",
        "lat": 1.3567159,
        "lng": 103.98651,
        "place_id": "ChIJ_-4P-ow82jERuJBbBoncXa0",
        "rolled_in_clinics":false
    },
    {
        "name": "RAFFLESMEDICAL",
        "formatted_address": "1 Maritime Square, #03-56, Singapore 099253",
        "lat": 1.264821,
        "lng": 103.820312,
        "place_id": "ChIJ_-4P-ow82jERnHwxSWa6WjI",
        "rolled_in_clinics":false
    },
    {
        "name": "RAFFLESMEDICAL",
        "formatted_address": "391B Orchard Road, 08-06, Singapore 238872",
        "lat": 1.3024805,
        "lng": 103.8343292,
        "place_id": "ChIJN_SOj5EZ2jERv9A0a8UBwSo",
        "rolled_in_clinics":false
    },
    {
        "name": "RAFFLESMEDICAL",
        "formatted_address": "Sembawang Way, #01-06/07 Block 355A, Singapore 750355",
        "lat": 1.4495648,
        "lng": 103.818765,
        "place_id": "ChIJcQVMIGMT2jER4OpN5ae3UIk",
        "rolled_in_clinics":false
    },
    {
        "name": "RAFFLESMEDICAL",
        "formatted_address": "10e Sixth Ave, #01-03, Singapore 276474",
        "lat": 1.3312066,
        "lng": 103.794759,
        "place_id": "ChIJVVVVxZ4Q2jERtU8aLtKihuk",
        "rolled_in_clinics":false
    },
    {
        "name": "RAFFLESMEDICAL",
        "formatted_address": "1 Changi Business Park Crescent, #01-11 Plaza 8, Singapore 486025",
        "lat": 1.3332273,
        "lng": 103.9661879,
        "place_id": "ChIJ____L9c82jERBcQdjvJXsyA",
        "rolled_in_clinics":false
    },
    {
        "name": "RAFFLESMEDICAL",
        "formatted_address": "60 Airport Boulevard, B16-025 Passenger Terminal Building 2 Singapore Changi Airport, Singapore 819643",
        "lat": 1.342948,
        "lng": 103.982266,
        "place_id": "ChIJ50sh0I082jERvY0bZgpcyCo",
        "rolled_in_clinics":false
    },
    {
        "name": "RAFFLESMEDICAL",
        "formatted_address": "Clementi Ave 3, # 01-189 Blk 446, Singapore 120446",
        "lat": 1.3125182,
        "lng": 103.7649054,
        "place_id": "ChIJiWEW-40a2jER1dGaxZ-PBf0",
        "rolled_in_clinics":false
    },
    {
        "name": "RAFFLESMEDICAL",
        "formatted_address": "23 Serangoon Central, #B2-01 NEX 1, Singapore 556083",
        "lat": 1.3509426,
        "lng": 103.8715642,
        "place_id": "ChIJ____r6YX2jERny2t0O84x90",
        "rolled_in_clinics":false
    },
    {
        "name": "RAFFLESMEDICAL",
        "formatted_address": "8 Marina View, #15-01 Asia Square Tower 1, Singapore 018960",
        "lat": 1.279103,
        "lng": 103.85129,
        "place_id": "ChIJAQDA7xEZ2jER1jJ5Rzivr24",
        "rolled_in_clinics":false
    },
    {
        "name": "RAFFLESMEDICAL",
        "formatted_address": "5 Changi Business Park Central 1, B1-55/56, Singapore 486038",
        "lat": 1.3350199,
        "lng": 103.9625002,
        "place_id": "ChIJaTRtzNk82jERlu6VPkoABQk",
        "rolled_in_clinics":false
    },
    {
        "name": "RAFFLESMEDICAL",
        "formatted_address": "112 E Coast Rd, #03-17 112, Singapore 428802",
        "lat": 1.3049894,
        "lng": 103.9051445,
        "place_id": "ChIJ2Zxh8XIY2jERkDK4zJKvRp0",
        "rolled_in_clinics":false
    },
    {
        "name": "RAFFLESMEDICAL",
        "formatted_address": "80 Robinson Rd, #01-00, Singapore 068898",
        "lat": 1.2797925,
        "lng": 103.8492353,
        "place_id": "ChIJE5i08w0Z2jERrulW8aqqEdU",
        "rolled_in_clinics":false
    },
    {
        "name": "RAFFLESMEDICAL",
        "formatted_address": "1 Pasir Ris Central Street 3, #04 - 19, Singapore 518457",
        "lat": 1.372692,
        "lng": 103.94959,
        "place_id": "ChIJbZHV_a892jERNhrm-bgNZXE",
        "rolled_in_clinics":false
    },
    {
        "name": "RAFFLESMEDICAL",
        "formatted_address": "1 Jurong West Central 2, #B1A-19D Jurong Point Shopping Centre, Singapore 648886",
        "lat": 1.339743,
        "lng": 103.706151,
        "place_id": "ChIJs7Nuz-wP2jERddr7qyw0OlA",
        "rolled_in_clinics":false
    },
    {
        "name": "RAFFLESMEDICAL",
        "formatted_address": "Bedok North Street 1, #01-467 Blk 203, Singapore 460203",
        "lat": 1.3257466,
        "lng": 103.9291141,
        "place_id": "ChIJXTiNyrIi2jER1vY4SDJ1gCo",
        "rolled_in_clinics":false
    },
    {
        "name": "RAFFLESMEDICAL",
        "formatted_address": "21 Choa Chu Kang North 6, #01-02 Yew Tee Point, Singapore 689578",
        "lat": 1.3973283,
        "lng": 103.7465244,
        "place_id": "ChIJA_PFIk0a2jER2w6AhBTqHLk",
        "rolled_in_clinics":false
    },
    {
        "name": "RAFFLESMEDICAL",
        "formatted_address": "12 Marina Boulevard, #17-05 Marina Bay Financial Centre Tower 3, Singapore 018982",
        "lat": 1.279924,
        "lng": 103.854929,
        "place_id": "ChIJ73Ug9w4Z2jERcWr3CizP-As",
        "rolled_in_clinics":false
    },
    {
        "name": "RAFFLESMEDICAL",
        "formatted_address": "3 Simei Street 6, #02-27 Eastpoint Mall, Singapore 528833",
        "lat": 1.3430618,
        "lng": 103.9531037,
        "place_id": "ChIJNbUBTyI92jERJ9Cx-rO_VPU",
        "rolled_in_clinics":false
    },
    {
        "name": "RAFFLESMEDICAL",
        "formatted_address": "585 North Bridge Rd, Level 2 Raffles Hospital, Singapore 188770",
        "lat": 1.301059,
        "lng": 103.857096,
        "place_id": "ChIJxZfxhbAZ2jER1_HXy0rcJws",
        "rolled_in_clinics":false
    },
    {
        "name": "RAFFLESMEDICAL",
        "formatted_address": "11 Rivervale Crescent, #02-17 Rivervale Mall, Singapore 545082",
        "lat": 1.392256,
        "lng": 103.904421,
        "place_id": "ChIJn_mqNwUW2jER8HTHiDGKPYs",
        "rolled_in_clinics":false
    },
    {
        "name": "RAFFLESMEDICAL",
        "formatted_address": "83, Punggol Central, #02-29 Waterway Point, Singapore 828761",
        "lat": 1.40602,
        "lng": 103.9022615,
        "place_id": "ChIJL_NVReMV2jERUxYmGmVoKOQ",
        "rolled_in_clinics":false
    },
    {
        "name": "RAFFLESMEDICAL",
        "formatted_address": "20 Airport Blvd, Singapore 819659",
        "lat": 1.3414614,
        "lng": 103.9838777,
        "place_id": "ChIJbR_4gsA82jERzmr5s4yDYsg",
        "rolled_in_clinics":false
    },
    {
        "name": "RAFFLESMEDICAL",
        "formatted_address": "118 Holland Ave, Level 5 Raffles Holland V, Singapore 278997",
        "lat": 1.3105556,
        "lng": 103.7961148,
        "place_id": "ChIJkTv8Amsa2jERAt3eGKCUHV8",
        "rolled_in_clinics":false
    },
    {
        "name": "RAFFLESMEDICAL",
        "formatted_address": "1 Sengkang Square 04-09,Compass One Mall, Singapore 545078",
        "lat": 1.3923825,
        "lng": 103.8951315,
        "place_id": "ChIJgbuahQ0W2jERFewIX7YbOgk",
        "rolled_in_clinics":false
    },
    {
        "name": "RAFFLESMEDICAL",
        "formatted_address": "17 Petir Road, Hillion Mall, #02-07, Singapore 678278",
        "lat": 1.378831,
        "lng": 103.762937,
        "place_id": "ChIJN9scprwR2jERrBlxmcLj2ys",
        "rolled_in_clinics":false
    },
    {
        "name": "RAFFLESMEDICAL",
        "formatted_address": "1207 Dover Rd, Singapore 139654",
        "lat": 1.3033084,
        "lng": 103.7776456,
        "place_id": "ChIJNXWx01ga2jERpu2_toh7zME",
        "rolled_in_clinics":false
    },
    {
        "name": "RAFFLESMEDICAL",
        "formatted_address": "1 Tampines Street 73, Singapore 528704",
        "lat": 1.3585296,
        "lng": 103.9318392,
        "place_id": "ChIJR1ri4XM92jERgNlJlu0a15k",
        "rolled_in_clinics":false
    },
    {
        "name": "RAFFLESMEDICAL",
        "formatted_address": "930 Yishun Ave 2, Singapore 769098",
        "lat": 1.4279686,
        "lng": 103.8364152,
        "place_id": "ChIJ9RT-5DYV2jERKbQXNwU4m6A",
        "rolled_in_clinics":false
    },
    {
        "name": "RAFFLESMEDICAL",
        "formatted_address": "70 Airport Blvd, Singapore 819661 Airport Blvd, Singapore 819661",
        "lat": 1.3579501,
        "lng": 103.9869083,
        "place_id": "ChIJUbb5h4w82jERIcFF4T7frWU",
        "rolled_in_clinics":false
    },
    {
        "name": "RAFFLESMEDICAL",
        "formatted_address": "Airport Blvd, Singapore Changi Airport (SIN), Singapore",
        "lat": 1.3644202,
        "lng": 103.9915308,
        "place_id": "ChIJ483Qk9YX2jERA0VOQV7d1tY",
        "rolled_in_clinics":false
    },
    {
        "name": "RAFFLESMEDICAL",
        "formatted_address": "10 Tampines Central 1, #03-28, Singapore 529536",
        "lat": 1.354276,
        "lng": 103.945289,
        "place_id": "ChIJY_X_PxI92jERr2tZ7YDdAx4",
        "rolled_in_clinics":false
    },
    {
        "name": "RAFFLESSPECIALISTS",
        "formatted_address": "118 Holland Ave, Singapore 278973",
        "lat": 1.3105584,
        "lng": 103.7961823,
        "place_id": "ChIJf2SJA2sa2jERSrwcPU_QRvI",
        "rolled_in_clinics":false
    },
    {
        "name": "RAFFLESWOMEN'SCENTRE",
        "formatted_address": "50 Raffles Place, #01-02A Singapore Land Tower, Singapore 048623",
        "lat": 1.2850029,
        "lng": 103.851904,
        "place_id": "ChIJE8SSPgkZ2jERSlO-eTug854",
        "rolled_in_clinics":false
    },
    {
        "name": "RAFFLESWOMEN'SCENTRE",
        "formatted_address": "10 Tampines Central 1, #04-33, Singapore 529536",
        "lat": 1.354413,
        "lng": 103.944947,
        "place_id": "ChIJ6_w9Ig492jERpWhdOxx8R80",
        "rolled_in_clinics":false
    },
    {
        "name": "RAFFLESWOMEN'SCENTRE",
        "formatted_address": "12 Marina Boulevard, Tower 3, #17-01 Marina Bay Financial Centre, Singapore 018982",
        "lat": 1.2798897,
        "lng": 103.8548685,
        "place_id": "ChIJsSmt3wgZ2jERR3WWAwM8LhU",
        "rolled_in_clinics":false
    },
    {
        "name": "RAINBOW DENTAL CLINIC",
        "formatted_address": "501 Margaret Dr, Singapore 149306",
        "lat": 1.2972992,
        "lng": 103.8091038,
        "place_id": "ChIJeV9wMDAa2jERjOejs1wCWXE",
        "rolled_in_clinics":false
    },
    {
        "name": "RAINBOW DENTAL SURGERY",
        "formatted_address": "376 Bukit Batok Street 31, Singapore 650376",
        "lat": 1.3583922,
        "lng": 103.7496706,
        "place_id": "ChIJx59jWTYQ2jEReX0MA2P63H4",
        "rolled_in_clinics":false
    },
    {
        "name": "RAINTREE DENTAL CLINIC",
        "formatted_address": "107 E Coast Rd, Singapore 428799",
        "lat": 1.305746,
        "lng": 103.90442,
        "place_id": "ChIJUZ-e8nIY2jERvV-jY58t_yY",
        "rolled_in_clinics":true
    },
    {
        "name": "RATNAM'S ALLERGY & SKIN CENTRE",
        "formatted_address": "190 Clemenceau Ave, #05-21, Singapore 239924",
        "lat": 1.2980792,
        "lng": 103.8440911,
        "place_id": "ChIJD4OtBJgZ2jERnKuRZlgZQTk",
        "rolled_in_clinics":false
    },
    {
        "name": "RAVENNA UROLOGY CLINIC",
        "formatted_address": "#09-18 Gleneagles Medical Centre, 6 Napier Rd, Singapore 258499",
        "lat": 1.3077263,
        "lng": 103.8200865,
        "place_id": "ChIJ53bhbiAa2jERhBIis6W7k14",
        "rolled_in_clinics":false
    },
    {
        "name": "RAVI SURGERY",
        "formatted_address": "3 Mount Elizabeth, Singapore 228510",
        "lat": 1.305083,
        "lng": 103.8353626,
        "place_id": "ChIJuaCiV5IZ2jERdB0r9oBwFB8",
        "rolled_in_clinics":false
    },
    {
        "name": "RC'S FAMILY CLINIC PTE LTD",
        "formatted_address": "635C Senja Rd, #01-03, Singapore 673635",
        "lat": 1.3867213,
        "lng": 103.757831,
        "place_id": "ChIJNT9uIJQR2jERgUjoRbm_62w",
        "rolled_in_clinics":false
    },
    {
        "name": "RCMC RIVERVALE CRESCENT MEDICAL CENTRE",
        "formatted_address": "182A Rivervale Cres, #01-04, Singapore 541182",
        "lat": 1.3903713,
        "lng": 103.9089985,
        "place_id": "ChIJxbkbYBsW2jERRAQD8SMHufA",
        "rolled_in_clinics":false
    },
    {
        "name": "RED DOT MEDICAL",
        "formatted_address": "660A Edgedale Plains, #02-06, Singapore 821660",
        "lat": 1.4027386,
        "lng": 103.9166358,
        "place_id": "ChIJ2RjZWgA-2jER3wim0byNLV8",
        "rolled_in_clinics":false
    },
    {
        "name": "REDHILL DENTAL SURGERY PTE LTD",
        "formatted_address": "Blk 75D Redhill Rd, #01-88, Singapore 154075",
        "lat": 1.2885098,
        "lng": 103.8158848,
        "place_id": "ChIJp9pIUysa2jERiPFvMimeFiM",
        "rolled_in_clinics":false
    },
    {
        "name": "REDWOOD CLINIC AND SURGERY PTE LTD",
        "formatted_address": "920 Tiong Bahru Rd, #01-07 Redhill MRT Station, Singapore 158792",
        "lat": 1.289739,
        "lng": 103.8167551,
        "place_id": "ChIJMQg0y-ob2jERoS-L3Spmy20",
        "rolled_in_clinics":false
    },
    {
        "name": "REFLECTIONS MEDI AESTHETICS",
        "formatted_address": "84 Serangoon Garden Way Singapore 555980 Serangoon Garden Way, Singapore 555980",
        "lat": 1.364297,
        "lng": 103.8649674,
        "place_id": "ChIJH7cZK_4W2jERfvWFZrtiLJw",
        "rolled_in_clinics":false
    },
    {
        "name": "REGENT CLINIC",
        "formatted_address": "301 Upper Thomson Rd, Singapore 574408",
        "lat": 1.3546227,
        "lng": 103.8309128,
        "place_id": "ChIJbaYVKDAX2jERVooNlXz06fI",
        "rolled_in_clinics":false
    },
    {
        "name": "REGENT DENTAL CLINIC",
        "formatted_address": "136 Potong Pasir Ave 3, Singapore 350136",
        "lat": 1.3340619,
        "lng": 103.8666004,
        "place_id": "ChIJXZgwaHgX2jERPxGKEFwT2D0",
        "rolled_in_clinics":false
    },
    {
        "name": "REGIONAL PATIENTCARE MEDICAL GROUP PTE LTD (ADMIRALTY PLACE BRANCH)",
        "formatted_address": "678 Woodlands Ave 6, Singapore 730678",
        "lat": 1.4399252,
        "lng": 103.8013857,
        "place_id": "ChIJ_W5cgnUT2jERTO2AgIzWpVA",
        "rolled_in_clinics":false
    },
    {
        "name": "REGIONAL PATIENTCARE MEDICAL GROUP PTE LTD (YISHUN CENTRAL BRANCH)",
        "formatted_address": "932 Yishun Central 1, Singapore 760932",
        "lat": 1.4264545,
        "lng": 103.8369349,
        "place_id": "ChIJLegG7W4U2jERPdcLaPpwVEI",
        "rolled_in_clinics":false
    },
    {
        "name": "REHABMAGNETIC MEDICAL CENTRE",
        "formatted_address": "Royal Square at Novena, 101 Irrawaddy Rd, Singapore 329565",
        "lat": 1.3208917,
        "lng": 103.8431406,
        "place_id": "ChIJme7LkncZ2jERTqFDLeqbt_0",
        "rolled_in_clinics":true
    },
    {
        "name": "REN MEDICAL CLINIC",
        "formatted_address": "101 Yishun Ave 5, Singapore 760101",
        "lat": 1.4305038,
        "lng": 103.827456,
        "place_id": "ChIJLYAU83kU2jER15d0QpxpJKU",
        "rolled_in_clinics":false
    },
    {
        "name": "RENAISSANCE DERMATOLOGY SPECIALIST CLINIC",
        "formatted_address": "38 Irrawaddy Rd, #10-36, Singapore 329563",
        "lat": 1.3222438,
        "lng": 103.8440425,
        "place_id": "ChIJn6Q2rOAZ2jERL80UGj2dgSU",
        "rolled_in_clinics":false
    },
    {
        "name": "RENAL HEALTH PTE LTD",
        "formatted_address": "Outram Rd, Singapore 169608",
        "lat": 1.2795877,
        "lng": 103.8358881,
        "place_id": "ChIJ1WxMlW8Z2jERlkpUYbEJYFw",
        "rolled_in_clinics":false
    },
    {
        "name": "RENAL LIFE (ALEXANDRA) DIALYSIS CENTRE PTE LTD",
        "formatted_address": "Bukit Merah Lane 1, #01-74 Blk 123, Singapore 150123",
        "lat": 1.2869107,
        "lng": 103.804138,
        "place_id": "ChIJb0t_yBcb2jERTtTr5nKrcZU",
        "rolled_in_clinics":false
    },
    {
        "name": "RENAL LIFE (HOUGANG) DIALYSIS CENTRE PTE LTD",
        "formatted_address": "Blk, 142 Lor Ah Soo, #01-233, Singapore 530142",
        "lat": 1.3524088,
        "lng": 103.8826049,
        "place_id": "ChIJ35IFw08X2jERKfyCpBt1c7k",
        "rolled_in_clinics":false
    },
    {
        "name": "RENAL LIFE (PIONEER) DIALYSIS CENTRE PTE LTD",
        "formatted_address": "810 Jurong West Street 81, Singapore 640810",
        "lat": 1.3469858,
        "lng": 103.6956628,
        "place_id": "ChIJBXDwab0P2jERgAq6C_l41lQ",
        "rolled_in_clinics":false
    },
    {
        "name": "RENAL LIFE (W) DIALYSIS CENTRE PTE LTD",
        "formatted_address": "207 Bukit Batok Street 21, Singapore 650207",
        "lat": 1.3462385,
        "lng": 103.7493298,
        "place_id": "ChIJ4y8F0z8Q2jER2kAL312UnyU",
        "rolled_in_clinics":false
    },
    {
        "name": "RENAL LIFE DIALYSIS CENTRE PTE LTD",
        "formatted_address": "463 Jurong West Street 41, Singapore 640463",
        "lat": 1.3506271,
        "lng": 103.723095,
        "place_id": "ChIJEz4bANwP2jERDoiqrjKfBRk",
        "rolled_in_clinics":false
    },
    {
        "name": "RENALTEAM DIALYSIS CENTRE ANG MO KIO",
        "formatted_address": "128 Ang Mo Kio Ave 3, Singapore 560128",
        "lat": 1.3708109,
        "lng": 103.8436139,
        "place_id": "ChIJqwHGnt0W2jERULDHCQw25Uk",
        "rolled_in_clinics":false
    },
    {
        "name": "RENALTEAM DIALYSIS CENTRE AT REN CI COMMUNITY HOSPITAL",
        "formatted_address": "71 Irrawaddy Road #03-20 Ren Ci Community Hospital, Singapore 329562",
        "lat": 1.322947,
        "lng": 103.845714,
        "place_id": "ChIJo0LMF94Z2jER3FBAOL66u9A",
        "rolled_in_clinics":false
    },
    {
        "name": "RENALTEAM DIALYSIS CENTRE BEDOK",
        "formatted_address": "418 Bedok North Ave 2, Singapore 460418",
        "lat": 1.3285954,
        "lng": 103.930027,
        "place_id": "ChIJk_dDWUw92jERQgyyoN2dZ7E",
        "rolled_in_clinics":false
    },
    {
        "name": "RENALTEAM DIALYSIS CENTRE BUKIT MERAH",
        "formatted_address": "131 Jalan Bukit Merah, #01-1575, Singapore 160131",
        "lat": 1.2802434,
        "lng": 103.8282689,
        "place_id": "ChIJgU9MTnsZ2jERLX2q6zoXn4s",
        "rolled_in_clinics":false
    },
    {
        "name": "RENALTEAM DIALYSIS CENTRE FENGSHAN",
        "formatted_address": "89 Bedok North Street 4 #01-91, Singapore 460089",
        "lat": 1.3233722,
        "lng": 103.9292475,
        "place_id": "ChIJKXQEuS8j2jER9LBSqfsuVxc",
        "rolled_in_clinics":false
    },
    {
        "name": "RENALTEAM DIALYSIS CENTRE JURONG EAST",
        "formatted_address": "237 Jurong East Street 21, Block 237, Singapore 600237",
        "lat": 1.340711,
        "lng": 103.74118,
        "place_id": "ChIJAVXFrxAQ2jERMPPOIgoi9lQ",
        "rolled_in_clinics":false
    },
    {
        "name": "RENALTEAM DIALYSIS CENTRE TAMPINES",
        "formatted_address": "929 Tampines Street 91, Singapore 520929",
        "lat": 1.346349,
        "lng": 103.939481,
        "place_id": "ChIJGSnZEBU92jERG81iRf68UT4",
        "rolled_in_clinics":false
    },
    {
        "name": "RENALTEAM DIALYSIS CENTRE WOODLANDS PEAK",
        "formatted_address": "Blk 302A Woodlands St 31 #01-327 Woodlands Peak, Singapore 731302",
        "lat": 1.4316259,
        "lng": 103.7752213,
        "place_id": "ChIJ1y85vacT2jERpgGuflFWMT0",
        "rolled_in_clinics":false
    },
    {
        "name": "RESERVOIR ROAD CLINIC & SURGERY",
        "formatted_address": "HDB Bedok #01-3622, 704 Bedok Reservoir Road (S)470704, Singapore",
        "lat": 1.3363742,
        "lng": 103.9202104,
        "place_id": "ChIJT1emyOIX2jER_JFSqgA5A_E",
        "rolled_in_clinics":false
    },
    {
        "name": "RESILIENZ CLINIC",
        "formatted_address": "10 Sinaran Dr, #10-03, Singapore 307506",
        "lat": 1.320409,
        "lng": 103.844151,
        "place_id": "ChIJv-s_XecZ2jERkiC_Bqeovms",
        "rolled_in_clinics":false
    },
    {
        "name": "RESPIRATORY & MEDICAL SPECIALISTS PTE LTD",
        "formatted_address": "6 Napier Rd, Singapore 258499",
        "lat": 1.3077263,
        "lng": 103.8200865,
        "place_id": "ChIJvY5xIiAa2jERphdn030ed48",
        "rolled_in_clinics":false
    },
    {
        "name": "RESPIRATORY MEDICAL ASSOCIATES",
        "formatted_address": "Gleneagles Medical Centre #09-18, 6 Napier Road (S)258499, Singapore 258500",
        "lat": 1.3077263,
        "lng": 103.8200865,
        "place_id": "ChIJvY5xIiAa2jERlxVBEHqmw7I",
        "rolled_in_clinics":false
    },
    {
        "name": "RESPIRATORY MEDICAL ASSOCIATES",
        "formatted_address": "38 Irrawaddy Rd, Singapore 329563",
        "lat": 1.322152,
        "lng": 103.8442083,
        "place_id": "ChIJkxQZrOAZ2jERur-tK1db5Go",
        "rolled_in_clinics":false
    },
    {
        "name": "RESPIRATORY MEDICAL ASSOCIATES",
        "formatted_address": "3 Mount Elizabeth, Singapore 228510",
        "lat": 1.3045666,
        "lng": 103.8354606,
        "place_id": "ChIJzfZ6UJIZ2jERH6fpLc6mlIk",
        "rolled_in_clinics":false
    },
    {
        "name": "RESTORE HEART CENTRE",
        "formatted_address": "820 #07-52 Thomson Road D Mount Alvernia Medical Centre, Singapore 574623",
        "lat": 1.3419083,
        "lng": 103.8379548,
        "place_id": "ChIJ7ygClUYX2jER_FLA9NAMmoI",
        "rolled_in_clinics":false
    },
    {
        "name": "REVIVAL MEDICAL & AESTHETICS CENTRE",
        "formatted_address": "90 Bras Basah Rd, Singapore 189562",
        "lat": 1.2928021,
        "lng": 103.8559935,
        "place_id": "ChIJGST7xdQZ2jER1NXHnZHWxog",
        "rolled_in_clinics":true
    },
    {
        "name": "REXULTS CLINIC",
        "formatted_address": "302 Orchard Rd, #17-01 Tong Building, Singapore 238862",
        "lat": 1.3040511,
        "lng": 103.8348476,
        "place_id": "ChIJcWkZOZIZ2jERyXpKLMywGsw",
        "rolled_in_clinics":false
    },
    {
        "name": "RICHARD CHEW SURGERY PTE LTD",
        "formatted_address": "3 Mount Elizabeth, Singapore 228510",
        "lat": 1.3055915,
        "lng": 103.8354837,
        "place_id": "ChIJbygRIJMZ2jERlxH7a2Ya-rk",
        "rolled_in_clinics":false
    },
    {
        "name": "RICHARD FAN EYE CLINIC & SURGERY",
        "formatted_address": "3 Mount Elizabeth, Singapore 228510",
        "lat": 1.3050549,
        "lng": 103.8354392,
        "place_id": "ChIJuaCiV5IZ2jER6-QNfp3UIg0",
        "rolled_in_clinics":false
    },
    {
        "name": "RIDGEWOOD MEDICAL CLINIC",
        "formatted_address": "5 Ridgewood Cl, Singapore 276696",
        "lat": 1.3166295,
        "lng": 103.7790146,
        "place_id": "ChIJlyVkO2Ma2jERmpu5NdxJPvg",
        "rolled_in_clinics":false
    },
    {
        "name": "RIVER OF LIFE FAMILY CLINIC",
        "formatted_address": "26 Teck Whye Ln, Singapore 680026",
        "lat": 1.377558,
        "lng": 103.755584,
        "place_id": "ChIJ2X_lIrkR2jERShFtn-vtcyw",
        "rolled_in_clinics":false
    },
    {
        "name": "RIVERS DENTAL CLINIC",
        "formatted_address": "Blk, 45 Telok Blangah Dr, #01-171, Singapore 100045",
        "lat": 1.2721117,
        "lng": 103.8096113,
        "place_id": "ChIJd2J5HHoU2jERhFV1zli7Dnc",
        "rolled_in_clinics":false
    },
    {
        "name": "RIVERVALE FAMILY CLINIC & SURGERY",
        "formatted_address": "118 Rivervale Dr, Singapore 540118",
        "lat": 1.3857981,
        "lng": 103.9019959,
        "place_id": "ChIJ97RvbRoW2jERKhAJ2oedWXY",
        "rolled_in_clinics":false
    },
    {
        "name": "ROBERT TAN SURGERY TAN UROLOGY & LITHOTRIPSY CLINIC",
        "formatted_address": "6 Napier Rd, #05-03 Gleneagles Medical Centre, Singapore 258499",
        "lat": 1.3076254,
        "lng": 103.8202015,
        "place_id": "ChIJ2z1LICAa2jERyMdpKh94iLY",
        "rolled_in_clinics":false
    },
    {
        "name": "ROBERTSON CHOO OEHLERS LEE & LYE DENTAL SURGEONS",
        "formatted_address": "290 Orchard Road #12, 01 Tower 1 Lobby F Paragon, Singapore 238859",
        "lat": 1.303905,
        "lng": 103.835576,
        "place_id": "ChIJl_sOMpIZ2jERuoLeff2D4-A",
        "rolled_in_clinics":false
    },
    {
        "name": "ROBLESS VASCULAR CLINIC",
        "formatted_address": "3 Mount Elizabeth, Singapore 228510",
        "lat": 1.3045666,
        "lng": 103.8354606,
        "place_id": "ChIJzfZ6UJIZ2jERH6fpLc6mlIk",
        "rolled_in_clinics":false
    },
    {
        "name": "ROBLESS VASCULAR SURGERY",
        "formatted_address": "1, #02-01 Farrer Park Station Rd, Connexion, Singapore 217562",
        "lat": 1.3130812,
        "lng": 103.8542173,
        "place_id": "ChIJbzle2sUZ2jER5HGYEL6_X1c",
        "rolled_in_clinics":false
    },
    {
        "name": "ROCHOR CENTRE CLINIC",
        "formatted_address": "BURLINGTON SQUARE175 #01-20, Bencoolen St, Singapore 189649",
        "lat": 1.3019804,
        "lng": 103.8526956,
        "place_id": "ChIJEbTqx7sZ2jERz1dKu7dbtwI",
        "rolled_in_clinics":false
    },
    {
        "name": "ROCHOR CENTRE DENTAL SURGERY",
        "formatted_address": "635 Veerasamy Rd, #01-156, Singapore 200635",
        "lat": 1.3067255,
        "lng": 103.8552195,
        "place_id": "ChIJIWeYFboZ2jER2qlGtP5z-r0",
        "rolled_in_clinics":false
    },
    {
        "name": "ROCHOR DENTAL CLINIC PTE LTD",
        "formatted_address": "175 Bencoolen St, #01-54/50/51, Burlington Square, Singapore 189649",
        "lat": 1.3026405,
        "lng": 103.8522767,
        "place_id": "ChIJOcxCxLsZ2jERVzPjAGZMQV4",
        "rolled_in_clinics":false
    },
    {
        "name": "ROCHOR MEDICAL CENTRE",
        "formatted_address": "635 Veerasamy Rd, #01-156, Singapore 200635",
        "lat": 1.3067255,
        "lng": 103.8552195,
        "place_id": "ChIJIWeYFboZ2jER2qlGtP5z-r0",
        "rolled_in_clinics":false
    },
    {
        "name": "ROGER KIDNEY CLINIC",
        "formatted_address": "6 Napier Rd, #04-16 Gleneagles Hospital, Singapore 258499",
        "lat": 1.3079454,
        "lng": 103.8194525,
        "place_id": "ChIJ1-H_JyAa2jERM_5PDmYpLX8",
        "rolled_in_clinics":false
    },
    {
        "name": "ROLAND CHIENG FERTILITY AND WOMEN CARE",
        "formatted_address": "38 Irrawaddy Rd, #09-33 Mount Elizabeth, Singapore 329563",
        "lat": 1.3220491,
        "lng": 103.8443669,
        "place_id": "ChIJa6ad2ggY2jER_eJwcvmg9XE",
        "rolled_in_clinics":false
    },
    {
        "name": "ROLAND CHONG GASTROENTEROLOGY & MEDICAL CLINIC PTE LTD",
        "formatted_address": "6 Napier Road, #09-14 Gleneagles Medical Centre, Singapore 258499",
        "lat": 1.307592,
        "lng": 103.8199224,
        "place_id": "ChIJgTAcJyAa2jER6vmrwDsfT10",
        "rolled_in_clinics":false
    },
    {
        "name": "ROOT CANAL CLINIC",
        "formatted_address": "354 Clementi Ave 2, #01-191, Singapore 120354",
        "lat": 1.3135112,
        "lng": 103.7713331,
        "place_id": "ChIJ7_hraIka2jERJpQ1ANYLs1o",
        "rolled_in_clinics":false
    },
    {
        "name": "ROOTS! ADVANCED ENDODONTICS",
        "formatted_address": "10 Sinaran Dr, #11-32, Singapore 307506",
        "lat": 1.3208242,
        "lng": 103.8440129,
        "place_id": "ChIJdUi9XecZ2jERGggbJXm6iPA",
        "rolled_in_clinics":false
    },
    {
        "name": "ROPHI CLINIC",
        "formatted_address": "38 Irrawaddy Rd, Singapore 329563",
        "lat": 1.322236,
        "lng": 103.8440388,
        "place_id": "ChIJuXIgreAZ2jERRYNtlZEQhhA",
        "rolled_in_clinics":false
    },
    {
        "name": "ROSALIND CHONG CLINIC AND SURGERY FOR WOMEN PTE. LTD.",
        "formatted_address": "3 Mount Elizabeth, Singapore 228510",
        "lat": 1.3045739,
        "lng": 103.835553,
        "place_id": "ChIJHacSR5IZ2jER7zx6N4Ubj8g",
        "rolled_in_clinics":false
    },
    {
        "name": "ROWELL CLINIC & SURGERY",
        "formatted_address": "642 Rowell Rd, #01-115, Singapore 200642",
        "lat": 1.3078365,
        "lng": 103.8565478,
        "place_id": "ChIJy9sVAMgZ2jERxlM0jQ_jjRg",
        "rolled_in_clinics":false
    },
    {
        "name": "ROY'S FAMILY CLINIC & SURGERY",
        "formatted_address": "846 Yishun Ring Rd, #01-3605, Singapore 760846",
        "lat": 1.4171169,
        "lng": 103.8345776,
        "place_id": "ChIJZ25dFRIU2jERALQkPRkzrUk",
        "rolled_in_clinics":false
    },
    {
        "name": "ROYAL CARE MEDICAL FAMILY CLINIC CHOA CHU KANG",
        "formatted_address": "818 Choa Chu Kang Ave 1, #01-13 Opposite Keat Hong LRT, Singapore 680818",
        "lat": 1.3778772,
        "lng": 103.7494269,
        "place_id": "ChIJBcWVxMYR2jERBhpLXCe9Yzg",
        "rolled_in_clinics":false
    },
    {
        "name": "ROYAL CARE MEDICAL YISHUN GROVE",
        "formatted_address": "675 Yishun Ave 4, #01-07, Singapore 760675",
        "lat": 1.420093,
        "lng": 103.8435275,
        "place_id": "ChIJlcyjUnIV2jERyH_sbcWCX-s",
        "rolled_in_clinics":false
    },
    {
        "name": "ROYAL CARE MEDICAL YISHUN JUNCTION 9",
        "formatted_address": "Block 317, HDB Multi-Storey Carpark #01-03, Yishun Ave 9, Singapore 760317",
        "lat": 1.433787,
        "lng": 103.842141,
        "place_id": "ChIJkacwJmcU2jERyul0OgAmA2c",
        "rolled_in_clinics":false
    },
    {
        "name": "ROYAL MEDICAL CENTRE",
        "formatted_address": "111 Woodlands Street 13, #01-84, Singapore 730111",
        "lat": 1.4379871,
        "lng": 103.7820707,
        "place_id": "ChIJoXwHeKsT2jERk_n9imrx_TA",
        "rolled_in_clinics":false
    },
    {
        "name": "ROYCE DENTAL AESTHETIC AND IMPLANT CENTRE",
        "formatted_address": "8A Lor Mambong, Singapore 277674",
        "lat": 1.311102,
        "lng": 103.795151,
        "place_id": "ChIJjWeJM1Qb2jERH03a8_zR888",
        "rolled_in_clinics":false
    },
    {
        "name": "ROYCE DENTAL SURGERY",
        "formatted_address": "Clementi Ave 2, #01-206 Block 328, Singapore 120328",
        "lat": 1.313721,
        "lng": 103.767059,
        "place_id": "ChIJa_qbjo4a2jER5dTzcEedCC8",
        "rolled_in_clinics":false
    },
    {
        "name": "ROYCE DENTAL SURGERY",
        "formatted_address": "Woodlands Ave 1, #01-821 Block 371, Singapore 730371",
        "lat": 1.4323082,
        "lng": 103.7868073,
        "place_id": "ChIJLdKtga8T2jER-tcoLe47sVs",
        "rolled_in_clinics":true
    },
    {
        "name": "ROYCE DENTAL SURGERY",
        "formatted_address": "Blk 21 Ghim Moh Rd, #01-203, Singapore 270021",
        "lat": 1.310648,
        "lng": 103.788437,
        "place_id": "ChIJ__9PjI4a2jERGEdcYuIPPHQ",
        "rolled_in_clinics":false
    },
    {
        "name": "ROYCE DENTAL SURGERY",
        "formatted_address": "951 Upper Serangoon Rd, Singapore 534714",
        "lat": 1.3615253,
        "lng": 103.8863634,
        "place_id": "ChIJgcvnibQX2jERZlnSf7QyPlc",
        "rolled_in_clinics":false
    },
    {
        "name": "ROYCE DENTAL SURGERY",
        "formatted_address": "80 Marine Parade Rd, 05-23, Singapore 449269",
        "lat": 1.3013311,
        "lng": 103.9055751,
        "place_id": "ChIJyaLMsHEY2jER5prsIik1XUg",
        "rolled_in_clinics":false
    },
    {
        "name": "ROYCE DENTAL SURGERY",
        "formatted_address": "BLK 601B Tampines Ave 9, # 01 - 07, Singapore 522601",
        "lat": 1.3605525,
        "lng": 103.9370231,
        "place_id": "ChIJ__-Pqgw92jERHi6VkyD0N9U",
        "rolled_in_clinics":false
    },
    {
        "name": "ROYCE DENTAL SURGERY",
        "formatted_address": "Blk, 153 Bukit Batok Street 11, #01-284, Singapore 650153",
        "lat": 1.34758,
        "lng": 103.744293,
        "place_id": "ChIJrbkNePER2jERmyPv0_j46_4",
        "rolled_in_clinics":false
    },
    {
        "name": "ROYCE DENTAL SURGERY",
        "formatted_address": "Blk 361, Sembawang Cres, #01-08, Singapore 750361",
        "lat": 1.4463149,
        "lng": 103.8144544,
        "place_id": "ChIJCYLuh3wT2jER91dBAmC9NGQ",
        "rolled_in_clinics":false
    },
    {
        "name": "ROYCE DENTAL SURGERY",
        "formatted_address": "Blk 501, #01-372 Bishan Street 11, Singapore 570501",
        "lat": 1.348388,
        "lng": 103.849097,
        "place_id": "ChIJR7_ZZhUX2jERAb3lftvcIck",
        "rolled_in_clinics":false
    },
    {
        "name": "RP MEDICAL SPECIALISTS",
        "formatted_address": "20 Malacca St, #06-00, Singapore 048979",
        "lat": 1.2840517,
        "lng": 103.8506626,
        "place_id": "ChIJn3GbAgwZ2jERKPor7qnjpPo",
        "rolled_in_clinics":false
    },
    {
        "name": "RSIM GENERAL & COLORECTAL SURGERY",
        "formatted_address": "1 Farrer Park Station Rd, #13-10, Singapore 217562",
        "lat": 1.3127619,
        "lng": 103.8545562,
        "place_id": "ChIJjdeWd8YZ2jERV6QxgGsxlWI",
        "rolled_in_clinics":false
    },
    {
        "name": "RUBY MEDICAL CENTRE PTE LTD",
        "formatted_address": "505 Tampines Central 1, Singapore 520505",
        "lat": 1.3554003,
        "lng": 103.9451369,
        "place_id": "ChIJQQisRg492jERO8o32Up3ce8",
        "rolled_in_clinics":false
    },
    {
        "name": "RUTH KAM HEART AND ARRHYTHMIA CLINIC",
        "formatted_address": "1 Farrer Park Station Rd, #07-11 Connexion Farrer Park Medical Centre, Singapore 217562",
        "lat": 1.3122146,
        "lng": 103.8542517,
        "place_id": "ChIJHacSR5IZ2jERxxSD5nHtk9k",
        "rolled_in_clinics":false
    },
    {
        "name": "RUTH KAM HEART AND ARRHYTHMIA CLINIC @ FARRER",
        "formatted_address": "1 Farrer Park Station Rd, #07-11 Connexion Farrer Park Medical Centre, Singapore 217562",
        "lat": 1.3122146,
        "lng": 103.8542517,
        "place_id": "ChIJHacSR5IZ2jERxxSD5nHtk9k",
        "rolled_in_clinics":false
    },
    {
        "name": "RXEMEDIUM@BALESTIER MEDICAL CENTRE",
        "formatted_address": "2 Balestier Rd, #01-685, Singapore 320002",
        "lat": 1.3258546,
        "lng": 103.8428618,
        "place_id": "ChIJiW__KOAZ2jERrx8gfQMJa38",
        "rolled_in_clinics":false
    },
    {
        "name": "S & L FAMILY CLINIC",
        "formatted_address": "729 Yishun Street 71, Singapore 760729",
        "lat": 1.4262146,
        "lng": 103.8317663,
        "place_id": "ChIJIRbdlHEU2jEREGfFHv_CyXU",
        "rolled_in_clinics":false
    },
    {
        "name": "S AESTHETICS CLINIC",
        "formatted_address": "Scotts Medical Center (Pacific Plaza), 9 Scotts Road, #07-07, Singapore 228210",
        "lat": 1.3065879,
        "lng": 103.8320393,
        "place_id": "ChIJ69FJao0Z2jERWJhc-3KoRXU",
        "rolled_in_clinics":false
    },
    {
        "name": "S AND L FAMILY CLINIC",
        "formatted_address": "235 Yishun Street 21, Singapore 760235",
        "lat": 1.4344016,
        "lng": 103.8384607,
        "place_id": "ChIJib_yBmQU2jEROehUoKBNqcY",
        "rolled_in_clinics":false
    },
    {
        "name": "S C CHEW'S CLINIC",
        "formatted_address": "Mount Elizabeth Medical Centre #17-10, 3 Mount Elizabeth (S)228510, Singapore 228510",
        "lat": 1.3044259,
        "lng": 103.835166,
        "place_id": "ChIJuaCiV5IZ2jERLXhW11MB6dA",
        "rolled_in_clinics":false
    },
    {
        "name": "S C WONG SURGERY PTE LTD",
        "formatted_address": "820 Thomson Rd, Singapore 574623",
        "lat": 1.341499,
        "lng": 103.837625,
        "place_id": "ChIJ0yUHzEYX2jERvBTIHvkhOYA",
        "rolled_in_clinics":false
    },
    {
        "name": "S G CLINIC FAMILY PRACTICE",
        "formatted_address": "84 Serangoon Garden Way, Singapore 555980",
        "lat": 1.3642947,
        "lng": 103.8648981,
        "place_id": "ChIJszxmLP4W2jERKHGlZUrQfQ0",
        "rolled_in_clinics":false
    },
    {
        "name": "S H HO UROLOGY AND LAPAROSCOPY CENTRE",
        "formatted_address": "#09-18 Gleneagles Medical Centre, 6 Napier Rd, Singapore 258499",
        "lat": 1.3077263,
        "lng": 103.8200865,
        "place_id": "ChIJ53bhbiAa2jERhBIis6W7k14",
        "rolled_in_clinics":false
    },
    {
        "name": "S H HO UROLOGY AND LAPAROSCOPY CENTRE",
        "formatted_address": "38 Irrawaddy Rd, #07-44, Singapore 329563",
        "lat": 1.3222438,
        "lng": 103.8440425,
        "place_id": "ChIJFU8wBrEZ2jERruksOeP7xAI",
        "rolled_in_clinics":false
    },
    {
        "name": "S H TEOH CLINIC & SURGERY FOR WOMEN",
        "formatted_address": "3 Mt Elizabeth, MT Elizabeth Hospital, Singapore 228510",
        "lat": 1.305083,
        "lng": 103.8353627,
        "place_id": "ChIJuaCiV5IZ2jERmA6pFIcOMo8",
        "rolled_in_clinics":false
    },
    {
        "name": "S K TAY CLINIC & SURGERY",
        "formatted_address": "827 Tampines Street 81, Singapore 520827",
        "lat": 1.3497035,
        "lng": 103.9337061,
        "place_id": "ChIJ2_S2dmw92jERowzPqsJRx7o",
        "rolled_in_clinics":true
    },
    {
        "name": "S K YAP SPECIALIST EYE CLINIC & SURGERY PTE LTD",
        "formatted_address": "3 Mount Elizabeth, Singapore 228510",
        "lat": 1.3050549,
        "lng": 103.8354392,
        "place_id": "ChIJuaCiV5IZ2jER5Q8YFARYQWI",
        "rolled_in_clinics":false
    },
    {
        "name": "S L GOH WOMEN'S CLINIC",
        "formatted_address": "Mount Alvernia Hospital., 820 Thomson Road #05-59 Medical Centre D Singapore 574623 Thomson Rd, Singapore 574623",
        "lat": 1.3417017,
        "lng": 103.8380437,
        "place_id": "ChIJMyrvuEYX2jER3IeB0996pKM",
        "rolled_in_clinics":false
    },
    {
        "name": "S LEE CLINIC",
        "formatted_address": "644 Hougang Ave 8, #01-265, Singapore 530644",
        "lat": 1.37148,
        "lng": 103.881255,
        "place_id": "ChIJIVzRuU8W2jER6mzUVGcZ4PY",
        "rolled_in_clinics":false
    },
    {
        "name": "S M CHUA CLINIC & SURGERY FOR WOMEN",
        "formatted_address": "190 Clemenceau Ave, Singapore 239924",
        "lat": 1.298146,
        "lng": 103.8441579,
        "place_id": "ChIJU25fA5gZ2jER_Wd5nWLFdcs",
        "rolled_in_clinics":false
    },
    {
        "name": "S P CHEW SURGERY",
        "formatted_address": "3 Mount Elizabeth, #16-11 Medical Centre, Singapore 228510",
        "lat": 1.306048,
        "lng": 103.836132,
        "place_id": "ChIJ0cSmApMZ2jERN3f5UoQ-yAM",
        "rolled_in_clinics":false
    },
    {
        "name": "S P TEO CLINIC FOR WOMEN PTE LTD",
        "formatted_address": "400 Balestier Rd, Singapore 329802",
        "lat": 1.3253817,
        "lng": 103.850497,
        "place_id": "ChIJBQZyTN8Z2jERx0vz_arQdXI",
        "rolled_in_clinics":false
    },
    {
        "name": "S S TAN MEDICAL CLINIC",
        "formatted_address": "744 Yishun Street 72, Singapore 760744",
        "lat": 1.4293581,
        "lng": 103.8340571,
        "place_id": "ChIJhaWL8G8U2jERXgqy1RECNBQ",
        "rolled_in_clinics":false
    },
    {
        "name": "S T MEDICAL CENTRE",
        "formatted_address": "95 Aljunied Cres, Singapore 380095",
        "lat": 1.3210869,
        "lng": 103.8864423,
        "place_id": "ChIJV4CW4yMY2jERtFgE3avPQBQ",
        "rolled_in_clinics":false
    },
    {
        "name": "S W MEDICAL CENTRE",
        "formatted_address": "160 Yishun Street 11, Singapore 760160",
        "lat": 1.4324626,
        "lng": 103.8333551,
        "place_id": "ChIJ59zt0mQU2jERNnrdWiZKrb8",
        "rolled_in_clinics":false
    },
    {
        "name": "S Y LEE CLINIC",
        "formatted_address": "400 Balestier Rd, 01- 11 Balestier Road, Singapore 329802",
        "lat": 1.3258478,
        "lng": 103.8504566,
        "place_id": "ChIJY0tzTd8Z2jERrDmnH94IhOM",
        "rolled_in_clinics":false
    },
    {
        "name": "S&N AESTHETIC CLINIC",
        "formatted_address": "350 Jurong East Ave 1, Singapore 600350",
        "lat": 1.3440717,
        "lng": 103.7312267,
        "place_id": "ChIJMy6lrx8Q2jER_A0rinA1h98",
        "rolled_in_clinics":false
    },
    {
        "name": "S. C. LOW BREAST CENTRE",
        "formatted_address": "Singapore",
        "lat": 1.3073339,
        "lng": 103.8195892,
        "place_id": "ChIJvY5xIiAa2jERhqV1dbzesoo",
        "rolled_in_clinics":false
    },
    {
        "name": "S. T. MEDICAL CLINIC",
        "formatted_address": "531 Bedok North St 3 #01-694, Singapore 460531 Bedok North Street 3, Singapore 460531",
        "lat": 1.3329908,
        "lng": 103.926048,
        "place_id": "ChIJ3zL81E892jERuai2Mi1mEBQ",
        "rolled_in_clinics":false
    },
    {
        "name": "SAINT JUDE CENTRE FOR INTERNAL MEDICINE",
        "formatted_address": "38 Irrawaddy Road Mount Elizabeth Novena Specialist Centre, Irrawaddy Rd, #07-48, Singapore 329563",
        "lat": 1.322236,
        "lng": 103.8440388,
        "place_id": "ChIJzWCFn0IZ2jERxm2eMvqEI5I",
        "rolled_in_clinics":false
    },
    {
        "name": "SAINT-JULIEN CLINIC FOR DIABETES & ENDOCRINOLOGY",
        "formatted_address": "820 Thomson Road, 05-58, Mount Alvernia Hospital, Singapore 574623",
        "lat": 1.341499,
        "lng": 103.837625,
        "place_id": "ChIJH6LjvUYX2jERynCsjZ_VN9g",
        "rolled_in_clinics":false
    },
    {
        "name": "SAINT-JULIEN CLINIC FOR DIABETES & ENDOCRINOLOGY",
        "formatted_address": "1, #15-20 Farrer Park Station Rd, Connexion, Singapore 217562",
        "lat": 1.3127619,
        "lng": 103.8545562,
        "place_id": "ChIJ2_mfL_UZ2jEReCrCr0FUHgM",
        "rolled_in_clinics":false
    },
    {
        "name": "SAKYADHITA-NKF DIALYSIS CENTRE",
        "formatted_address": "19 Upper Boon Keng Rd, Singapore 380019",
        "lat": 1.3155626,
        "lng": 103.8737352,
        "place_id": "ChIJHwAkiDEY2jERZg40eZ_d-VY",
        "rolled_in_clinics":false
    },
    {
        "name": "SAM KIANG HUAY KWAN CHARITY CLINIC",
        "formatted_address": "41 Wilkie Rd, Singapore 228055",
        "lat": 1.3020774,
        "lng": 103.8484534,
        "place_id": "ChIJlTZQOLwZ2jERQu0oL1SwAyU",
        "rolled_in_clinics":false
    },
    {
        "name": "SAN WANG WU TI - KIDNEY DIALYSIS FOUNDATION CENTRE",
        "formatted_address": "Blk333 #03-33, Kreta Ayer Rd, Singapore 080333",
        "lat": 1.280441,
        "lng": 103.8430765,
        "place_id": "ChIJRYMVjXIZ2jER6orLBto2J3k",
        "rolled_in_clinics":false
    },
    {
        "name": "SASCO CLINIC",
        "formatted_address": "8 Changi N Way, Singapore 499611",
        "lat": 1.3506069,
        "lng": 103.972323,
        "place_id": "ChIJHag1nOU82jERRJYUaIirph8",
        "rolled_in_clinics":false
    },
    {
        "name": "SATA COMMHEALTH COMMUNITY HUB",
        "formatted_address": "Blk, 447B Jln Kayu, #01-01, Singapore 792447",
        "lat": 1.392604,
        "lng": 103.873258,
        "place_id": "ChIJ5_KjAiMX2jERvfLR_ZTOJ1w",
        "rolled_in_clinics":false
    },
    {
        "name": "SATA COMMHEALTH MEDICAL CENTRE",
        "formatted_address": "135 Jurong Gateway Rd, #04-345, Singapore 600135",
        "lat": 1.333949,
        "lng": 103.740152,
        "place_id": "ChIJo4WTmwUQ2jER9pOEXV9j5Gk",
        "rolled_in_clinics":false
    },
    {
        "name": "SATA COMMHEALTH MEDICAL CENTRE",
        "formatted_address": "351 Chai Chee St, SATA CommHealth Building, Corporate HQ, Singapore 468982",
        "lat": 1.327731,
        "lng": 103.921351,
        "place_id": "ChIJW2O_bVM92jERQ3YuWA0uv6s",
        "rolled_in_clinics":false
    },
    {
        "name": "SATA COMMHEALTH MEDICAL CENTRE",
        "formatted_address": "900, #04-01 South Woodlands Drive, Civic Centre, Singapore 730900",
        "lat": 1.4350909,
        "lng": 103.7867642,
        "place_id": "ChIJIbifRP8S2jER5s35sAdhEZA",
        "rolled_in_clinics":false
    },
    {
        "name": "SATA COMMHEALTH MEDICAL CENTRE",
        "formatted_address": "715 Ang Mo Kio Ave 6, #01-4008/4010, Singapore 560715",
        "lat": 1.371269,
        "lng": 103.8458758,
        "place_id": "ChIJhXIKcOcW2jER6ifJgYMDem4",
        "rolled_in_clinics":false
    },
    {
        "name": "SATA COMMHEALTH MEDICAL CENTRE",
        "formatted_address": "7 Tanjong Pagar Plaza, #02-103, Singapore 081007",
        "lat": 1.277063,
        "lng": 103.84324,
        "place_id": "ChIJz3ZC5GwZ2jER_wDreW_A3_8",
        "rolled_in_clinics":false
    },
    {
        "name": "SATA COMMHEALTH MEDICAL CENTRE",
        "formatted_address": "5 Tampines Central 6, #01-01A Telepark Building, Singapore 529482",
        "lat": 1.3531422,
        "lng": 103.9421835,
        "place_id": "ChIJe1vCEhI92jERI16LFIF_E4E",
        "rolled_in_clinics":false
    },
    {
        "name": "SATA COMMHEALTH MEDICAL CENTRE",
        "formatted_address": "1 Siang Kuang Ave, Singapore 347919",
        "lat": 1.3290482,
        "lng": 103.8700224,
        "place_id": "ChIJmfzqs4EX2jEROrbOX0A-w5s",
        "rolled_in_clinics":false
    },
    {
        "name": "SATA COMMHEALTH MEDICAL CENTRE",
        "formatted_address": "500 Corporation Rd, #01-01 NKF Integrated Renal Centre, Singapore 649808",
        "lat": 1.345463,
        "lng": 103.716757,
        "place_id": "ChIJH-RPNL0P2jERheNUm3lMQ98",
        "rolled_in_clinics":false
    },
    {
        "name": "SAUDARA CLINIC BY A+J GENERAL PHYSICIANS",
        "formatted_address": "228 Changi Rd, #01-01, Singapore 419741",
        "lat": 1.3172339,
        "lng": 103.9046533,
        "place_id": "ChIJlY2qBZYZ2jERnuKhstH4rbY",
        "rolled_in_clinics":false
    },
    {
        "name": "SAW & LEE DENTAL SURGERY",
        "formatted_address": "101B Upper Cross St, #B1-45 Peoples Park Centre, Singapore 058357",
        "lat": 1.285796,
        "lng": 103.844002,
        "place_id": "ChIJcf_XvnQZ2jERjkwkg-dVlec",
        "rolled_in_clinics":false
    },
    {
        "name": "SAW BABY & CHILD CLINIC & KHOO FAMILY CLINIC",
        "formatted_address": "681 Hougang Ave 8, #01-827, Singapore 530681",
        "lat": 1.3728871,
        "lng": 103.8860348,
        "place_id": "ChIJ7Wytq0gW2jERKZYxd-Um-d8",
        "rolled_in_clinics":false
    },
    {
        "name": "SBCC BABY & CHILD CLINIC",
        "formatted_address": "6 Napier Rd, #09-05 Gleneagles Medical Centre, Singapore 258499",
        "lat": 1.307123,
        "lng": 103.820059,
        "place_id": "ChIJhaDGPSAa2jERI9GA0ItqlLo",
        "rolled_in_clinics":false
    },
    {
        "name": "SBCC BABY & CHILD CLINIC",
        "formatted_address": "721 Ang Mo Kio Ave 8, #01-2805, Singapore 560721",
        "lat": 1.3723967,
        "lng": 103.8479386,
        "place_id": "ChIJXXZKoecW2jERNQ8ZJ2QCzxU",
        "rolled_in_clinics":false
    },
    {
        "name": "SBCC BABY & CHILD CLINIC",
        "formatted_address": "Blk 279, Bishan Street 24, #01-50, Singapore 570279",
        "lat": 1.3576771,
        "lng": 103.8440988,
        "place_id": "ChIJVVUlcCIX2jERPabpYF8uQSY",
        "rolled_in_clinics":false
    },
    {
        "name": "SBCC BABY & CHILD CLINIC",
        "formatted_address": "302 Tiong Bahru Rd, #02-139/140 Tiong Bahru Plaza, Singapore 168732",
        "lat": 1.2864777,
        "lng": 103.8271874,
        "place_id": "ChIJbS-VL3kZ2jERC-83qqpXrn0",
        "rolled_in_clinics":true
    },
    {
        "name": "SBCC BABY & CHILD CLINIC",
        "formatted_address": "118 Rivervale Drive, #02-20 Rivervale Plaza, Singapore 540118",
        "lat": 1.3852943,
        "lng": 103.901766,
        "place_id": "ChIJWbXKkSwa2jER-9z_SFjkNSw",
        "rolled_in_clinics":false
    },
    {
        "name": "SBCC BABY & CHILD CLINIC",
        "formatted_address": "1 Jelebu Rd, #04-03, Singapore 677743",
        "lat": 1.3802199,
        "lng": 103.7643956,
        "place_id": "ChIJRy_fNqMR2jERn-BW1TGXqRw",
        "rolled_in_clinics":false
    },
    {
        "name": "SBCC BABY & CHILD CLINIC -  ASTHMA, LUNG, SLEEP, ALLERGY & PAEDIATRIC CENTRE",
        "formatted_address": "6 Napier Rd, #04-15 Gleneagles Medical Centre, Singapore 258499",
        "lat": 1.3066135,
        "lng": 103.8196872,
        "place_id": "ChIJuWj-GCAa2jERCeK071XzuRY",
        "rolled_in_clinics":false
    },
    {
        "name": "SBCC BABY & CHILD CLINIC - ASTHMA, LUNG, SLEEP, ALLERGY & PAEDIATRIC CENTRE",
        "formatted_address": "6A Napier Rd, Singapore 258500",
        "lat": 1.3073629,
        "lng": 103.8202196,
        "place_id": "ChIJWXTRJCAa2jERXNBB0kxTWSU",
        "rolled_in_clinics":false
    },
    {
        "name": "SBCC BABY & CHILD CLINIC - CARDIOLOGY & PAEDIATRIC CENTRE",
        "formatted_address": "820 Thomson Road, #01-04 Mount Alvernia Medical Centre Blk A, Singapore 574623",
        "lat": 1.3419083,
        "lng": 103.8379548,
        "place_id": "ChIJGcBnlUYX2jERGvahhwFtZgU",
        "rolled_in_clinics":false
    },
    {
        "name": "SBCC BABY & CHILD CLINIC - GASTROENTEROLOGY, NEONATOLOGY & PAEDIATRIC CENTRE",
        "formatted_address": "38 Irrawaddy Rd, #05-46/47, Singapore 329563",
        "lat": 1.322236,
        "lng": 103.8440388,
        "place_id": "ChIJybqRseAZ2jERICqVSm0qcuY",
        "rolled_in_clinics":false
    },
    {
        "name": "SBCC BABY & CHILD CLINIC - NEUROLOGY, RHEUMATOLOGY & PAEDIATRIC CENTRE",
        "formatted_address": "290 Orchard Rd, #17-12 Paragon, Singapore 238859",
        "lat": 1.3043349,
        "lng": 103.8361743,
        "place_id": "ChIJHzefRpIZ2jERtWnnEgVxILQ",
        "rolled_in_clinics":false
    },
    {
        "name": "SBCC WOMEN'S CLINIC",
        "formatted_address": "443 Clementi Ave 3, #01-53, Singapore 120443",
        "lat": 1.3141966,
        "lng": 103.7640189,
        "place_id": "ChIJdXaLIY4a2jERNzyneWLU18I",
        "rolled_in_clinics":false
    },
    {
        "name": "SBCC WOMEN'S CLINIC",
        "formatted_address": "38 Irrawaddy Rd, #05-46/47, Singapore 329563",
        "lat": 1.322236,
        "lng": 103.8440388,
        "place_id": "ChIJybqRseAZ2jERICqVSm0qcuY",
        "rolled_in_clinics":false
    },
    {
        "name": "SBF SPORTS AND HAND CENTRE",
        "formatted_address": "160 Robinson Rd, #06-01 SBF Center, Singapore 068914",
        "lat": 1.2781678,
        "lng": 103.8478429,
        "place_id": "ChIJ_____2oZ2jERykbKQp3Jjhw",
        "rolled_in_clinics":false
    },
    {
        "name": "SC CHIA CLINIC",
        "formatted_address": "820 Thomson Rd, Singapore 574623",
        "lat": 1.3419413,
        "lng": 103.8378823,
        "place_id": "ChIJ0yUHzEYX2jERjwP0e9XyUpk",
        "rolled_in_clinics":false
    },
    {
        "name": "SCAL- NKF DIALYSIS CENTRE (WOODLANDS BRANCH)",
        "formatted_address": "365 Woodlands Ave 5, #01-490, Singapore 730365",
        "lat": 1.4343393,
        "lng": 103.7876058,
        "place_id": "ChIJ7Yiw-qUT2jERiKOqh2L4DeQ",
        "rolled_in_clinics":false
    },
    {
        "name": "SCAL-NKF DIALYSIS CENTRE (YISHUN BRANCH)",
        "formatted_address": "840 Yishun Street 81, Singapore 760840",
        "lat": 1.4156702,
        "lng": 103.8334938,
        "place_id": "ChIJxXde_xEU2jERDKn4qQ6xcZU",
        "rolled_in_clinics":false
    },
    {
        "name": "SCHOOL DENTAL CENTRE",
        "formatted_address": "3 Second Hospital Ave, Singapore 168937",
        "lat": 1.2797591,
        "lng": 103.8383594,
        "place_id": "ChIJ_R9cHm4Z2jERsZyEKCbWqRQ",
        "rolled_in_clinics":false
    },
    {
        "name": "SCINN MEDICAL CENTRE",
        "formatted_address": "111 Somerset Rd, #04-12/13 TripleOne Somerset, Singapore 238164",
        "lat": 1.3001685,
        "lng": 103.8372952,
        "place_id": "ChIJ01erApIZ2jEROx600yJslIU",
        "rolled_in_clinics":false
    },
    {
        "name": "SCOLIOSIS SPECIALIST CLINIC",
        "formatted_address": "3 Second Hospital Ave, Singapore 168937",
        "lat": 1.2797591,
        "lng": 103.8383594,
        "place_id": "ChIJ_R9cHm4Z2jERsZyEKCbWqRQ",
        "rolled_in_clinics":false
    },
    {
        "name": "SCOTTS DENTAL CENTRE",
        "formatted_address": "8 Eu Tong Sen Street #18-87 The Central @ Clark Quay Office 2, Singapore 059818",
        "lat": 1.2889323,
        "lng": 103.8465342,
        "place_id": "ChIJR5yDbY0Z2jER48iuBprnoIk",
        "rolled_in_clinics":false
    },
    {
        "name": "SCS CANCER REHABILITATION CLINIC",
        "formatted_address": "52 Jurong Gateway Rd, #08-04 JEM Office Tower, Singapore 609690",
        "lat": 1.3330769,
        "lng": 103.7436653,
        "place_id": "ChIJuyBs-w4Q2jERSbyvIablgO4",
        "rolled_in_clinics":false
    },
    {
        "name": "SEACARE MARITIME MEDICAL CENTRE PTE LTD",
        "formatted_address": "100 Tras St, #18-02/03 The Amara Corporate Tower, Singapore 088539",
        "lat": 1.275,
        "lng": 103.84361,
        "place_id": "ChIJP6ZuX2sZ2jERe1wAF2zp_bw",
        "rolled_in_clinics":false
    },
    {
        "name": "SEASONS CLINIC",
        "formatted_address": "844 Tampines Street 82, Singapore 520844",
        "lat": 1.3519195,
        "lng": 103.9365071,
        "place_id": "ChIJ5fv2I2092jERkzlv_K-hcxQ",
        "rolled_in_clinics":false
    },
    {
        "name": "SEE AESTHETICS & MEDICAL CLINIC",
        "formatted_address": "9 Scotts Rd, #11-01 Pacific Plaza, Singapore 228210",
        "lat": 1.3065981,
        "lng": 103.8320871,
        "place_id": "ChIJeWKOuowZ2jERw6x-ZABKb2w",
        "rolled_in_clinics":false
    },
    {
        "name": "SEED OF LIFE, FERTILITY & WOMEN'S CARE MEDICAL CENTRE",
        "formatted_address": "38 Irrawaddy Rd, Singapore 329563",
        "lat": 1.322236,
        "lng": 103.8440388,
        "place_id": "ChIJuXIgreAZ2jERRYNtlZEQhhA",
        "rolled_in_clinics":false
    },
    {
        "name": "SEFTON MEDICAL CENTRE PTE LTD",
        "formatted_address": "Blk 41, Holland Dr, #01-25, Singapore 270041",
        "lat": 1.3074833,
        "lng": 103.7936158,
        "place_id": "ChIJF1q7G2sa2jERHWQjbWEc92g",
        "rolled_in_clinics":false
    },
    {
        "name": "SEGAR VALE DENTAL SURGERY",
        "formatted_address": "547 Segar Rd, #01-04, Singapore 670547",
        "lat": 1.3878759,
        "lng": 103.7698371,
        "place_id": "ChIJS16SAZwR2jERcNwwGeoXKBU",
        "rolled_in_clinics":false
    },
    {
        "name": "SELF AESTHETICS MEDICAL CLINIC",
        "formatted_address": "390 Orchard Rd, Singapore 03-10 & 03-11, Singapore 238871",
        "lat": 1.3067834,
        "lng": 103.8296313,
        "place_id": "ChIJDQvIEEgZ2jERK05rUB2X98s",
        "rolled_in_clinics":false
    },
    {
        "name": "SELINA CHUA WOMEN'S CLINIC",
        "formatted_address": "3 Mount Elizabeth, Singapore 228510",
        "lat": 1.3050489,
        "lng": 103.8354274,
        "place_id": "ChIJAQAAUJIZ2jERHpRvFHcDyGc",
        "rolled_in_clinics":false
    },
    {
        "name": "SEMBAWANG DENTAL SURGERY",
        "formatted_address": "406 Sembawang Dr, Singapore 750406",
        "lat": 1.4529477,
        "lng": 103.8170464,
        "place_id": "ChIJt1Z95mMT2jERpR-7ujEou9E",
        "rolled_in_clinics":false
    },
    {
        "name": "SEMBAWANG MART MEDICAL CENTRE",
        "formatted_address": "511 Canberra Rd, #02-02A, Singapore 750511",
        "lat": 1.4535299,
        "lng": 103.8195918,
        "place_id": "ChIJU3LhjmET2jERF8RHd_3x4V4",
        "rolled_in_clinics":false
    },
    {
        "name": "SEMBCORP MARINE ADMIRALTY YARD MEDICAL CENTRE",
        "formatted_address": "Singapore 759956",
        "lat": 1.455844,
        "lng": 103.798598,
        "place_id": "ChIJk8991WoT2jERCHfVbcb59WY",
        "rolled_in_clinics":false
    },
    {
        "name": "SEMBCORP MARINE TANJONG KLING YARD MEDICAL CENTRE",
        "formatted_address": "29 Tanjong Kling Rd, Singapore 628054",
        "lat": 1.304541,
        "lng": 103.703977,
        "place_id": "ChIJUdvr3BUF2jERXA1SpIbDMkI",
        "rolled_in_clinics":false
    },
    {
        "name": "SEMBCORP MARINE TUAS BOULEVARD YARD MEDICAL CENTRE",
        "formatted_address": "Singapore 637051",
        "lat": 1.263712,
        "lng": 103.613993,
        "place_id": "ChIJ0VDWbbgG2jERJ1aaLJAtiHY",
        "rolled_in_clinics":false
    },
    {
        "name": "SENG'S O G PRACTICE",
        "formatted_address": "6 Napier Rd, 03-17/18 Gleneagles Medical Centre, Singapore 258499",
        "lat": 1.3075918,
        "lng": 103.8199221,
        "place_id": "ChIJvY5xIiAa2jERu6Y0tq97P4I",
        "rolled_in_clinics":false
    },
    {
        "name": "SENGKANG DENTAL SURGERY",
        "formatted_address": "118 Rivervale Dr, Rivervale Plaza, Singapore 540118",
        "lat": 1.3853387,
        "lng": 103.901629,
        "place_id": "ChIJDaggbhcW2jER9i34fbWkUMg",
        "rolled_in_clinics":false
    },
    {
        "name": "SENGKANG FAMILY CLINIC",
        "formatted_address": "274D, #01-01 Compassvale Bow, Singapore 544274",
        "lat": 1.3823825,
        "lng": 103.8911203,
        "place_id": "ChIJL4GfqmoW2jERSQZnWZKEJTw",
        "rolled_in_clinics":false
    },
    {
        "name": "SENJA FAMILY CLINIC",
        "formatted_address": "609 Bukit Panjang Ring Rd, Singapore 670609",
        "lat": 1.3826227,
        "lng": 103.7620758,
        "place_id": "ChIJTY2cz5cR2jERTa2TyTDuGJQ",
        "rolled_in_clinics":false
    },
    {
        "name": "SENNETT MEDICAL CLINIC",
        "formatted_address": "55 Siglap Rd, #B1-10 Siglap Centre, Singapore 455871",
        "lat": 1.3124678,
        "lng": 103.9232359,
        "place_id": "ChIJmcADh6Qi2jER9hVipzw4oi0",
        "rolled_in_clinics":false
    },
    {
        "name": "SEOW-CHOEN COLORECTAL SURGERY PTE LTD",
        "formatted_address": "290 Orchard Rd, #06-06 Paragon Shopping Centre, Singapore 238859",
        "lat": 1.3039257,
        "lng": 103.8356393,
        "place_id": "ChIJEW8RUpIZ2jERH4ZdwQ4LvC0",
        "rolled_in_clinics":false
    },
    {
        "name": "SERANGOON GARDEN CLINIC & DISPENSARY",
        "formatted_address": "263 Serangoon Central Dr #01-51 Singapore 550263 Serangoon Central Dr, Singapore 550263",
        "lat": 1.3542138,
        "lng": 103.8719522,
        "place_id": "ChIJt_tLO6YX2jERjYnVLa21YrU",
        "rolled_in_clinics":false
    },
    {
        "name": "SGH SPECIALIST PRACTICE",
        "formatted_address": "6A Napier Rd, Singapore 258500",
        "lat": 1.3073629,
        "lng": 103.8202196,
        "place_id": "ChIJWXTRJCAa2jERXNBB0kxTWSU",
        "rolled_in_clinics":false
    },
    {
        "name": "SH TAN KIDNEY AND MEDICAL CLINIC",
        "formatted_address": "6 Napier Rd, #07-18, Singapore 258499",
        "lat": 1.307334,
        "lng": 103.819589,
        "place_id": "ChIJuWj-GCAa2jERJl1YB0lvoA0",
        "rolled_in_clinics":false
    },
    {
        "name": "SHALOM CLINIC & SURGERY",
        "formatted_address": "01-104 (Alexandra Village), 123 Bukit Merah Lane 1, Singapore 150123",
        "lat": 1.286514,
        "lng": 103.8036021,
        "place_id": "ChIJJ96rgcsb2jERhzWN03Fg67Q",
        "rolled_in_clinics":false
    },
    {
        "name": "SHALOM MEDICAL GROUP",
        "formatted_address": "231 Bain St, Singapore 180231",
        "lat": 1.296811,
        "lng": 103.8541067,
        "place_id": "ChIJPaWdBKUZ2jER8AA8Ca527so",
        "rolled_in_clinics":false
    },
    {
        "name": "SHANAH MEDICAL CLINIC",
        "formatted_address": "633 Veerasamy Rd, Block 633, Singapore 200633",
        "lat": 1.3058366,
        "lng": 103.8549056,
        "place_id": "ChIJYYb8sjEZ2jERs0f7UeBc2dg",
        "rolled_in_clinics":false
    },
    {
        "name": "SHANG DENTAL",
        "formatted_address": "153 Serangoon North Ave 1, #01-508, Singapore 550153",
        "lat": 1.369817,
        "lng": 103.871889,
        "place_id": "ChIJsVKIz1YW2jERdHgIOBATIzQ",
        "rolled_in_clinics":false
    },
    {
        "name": "SHANG DENTAL (SERANGOON NORTH)",
        "formatted_address": "153 Serangoon North Ave 1, #01-508, Singapore 550153",
        "lat": 1.369817,
        "lng": 103.871889,
        "place_id": "ChIJsVKIz1YW2jERdHgIOBATIzQ",
        "rolled_in_clinics":false
    },
    {
        "name": "SHANGRI-LA MEDICAL CLINIC",
        "formatted_address": "22 Orange Grove Rd, Singapore 258350",
        "lat": 1.3115822,
        "lng": 103.8263469,
        "place_id": "ChIJXU9FcvQZ2jERiz8HeaqV70E",
        "rolled_in_clinics":false
    },
    {
        "name": "SHANKAR SURGERY",
        "formatted_address": "6 Napier Rd, Singapore 258499",
        "lat": 1.30752,
        "lng": 103.82035,
        "place_id": "ChIJuWj-GCAa2jER5OWf5asydS0",
        "rolled_in_clinics":false
    },
    {
        "name": "SHARON DENTAL & SURGERY PTE LTD",
        "formatted_address": "10 Jln Serene, #02-13 Serene Centre, Singapore 258748",
        "lat": 1.3225835,
        "lng": 103.81373,
        "place_id": "ChIJ3a3ahaMb2jERf-ueF4cM59c",
        "rolled_in_clinics":false
    },
    {
        "name": "SHARON YIP DENTAL SURGERY",
        "formatted_address": "307 Choa Chu Kang Ave 4, #01-695, Singapore 680307",
        "lat": 1.3853204,
        "lng": 103.7427743,
        "place_id": "ChIJKQlGW9wR2jERUxR7gnsZ3iI",
        "rolled_in_clinics":false
    },
    {
        "name": "SHELL CHEMICALS SERAYA CLINIC",
        "formatted_address": "61 Seraya Ave, Singapore 627879",
        "lat": 1.2716995,
        "lng": 103.7262425,
        "place_id": "ChIJV9wQUcoE2jER8l6ZwRjgjJA",
        "rolled_in_clinics":true
    },
    {
        "name": "SHENG HONG TEMPLE-NKF DIALYSIS CENTRE",
        "formatted_address": "744 Jurong West Street 73, Singapore 640744",
        "lat": 1.3468123,
        "lng": 103.699189,
        "place_id": "ChIJgZ2M770P2jERUlel2u1_hSo",
        "rolled_in_clinics":false
    },
    {
        "name": "SHENS CLINIC",
        "formatted_address": "Winsland House 1, #09-08, 3 Killiney Road, Singapore, Singapore 239519",
        "lat": 1.2996608,
        "lng": 103.8402777,
        "place_id": "ChIJ-XK-NucZ2jERcsR7uJuLUe4",
        "rolled_in_clinics":false
    },
    {
        "name": "SHENTON CLINIC",
        "formatted_address": "498 Jurong West Street 41, Singapore 640498",
        "lat": 1.3483494,
        "lng": 103.724242,
        "place_id": "ChIJheDFid4P2jERErumXsy8NIU",
        "rolled_in_clinics":false
    },
    {
        "name": "SHENTON DENTAL SURGERY",
        "formatted_address": "1 Coleman St, #03-20, Singapore 179803",
        "lat": 1.2913131,
        "lng": 103.8512472,
        "place_id": "ChIJdabgLqcZ2jERCeM7vb0G5eA",
        "rolled_in_clinics":false
    },
    {
        "name": "SHENTON FAMILY MEDICAL CLINIC",
        "formatted_address": "Jurong Gateway Rd, #01-263 Blk 131, Singapore 600131",
        "lat": 1.3345668,
        "lng": 103.7401844,
        "place_id": "ChIJdR4cfwUQ2jERBDbXN8OBEFY",
        "rolled_in_clinics":false
    },
    {
        "name": "SHENTON FAMILY MEDICAL CLINIC",
        "formatted_address": "Blk, 728 Ang Mo Kio Ave 6, #01-4208, Singapore 560728",
        "lat": 1.3727031,
        "lng": 103.8456739,
        "place_id": "ChIJoT3xkucW2jER1WFjtRPYVak",
        "rolled_in_clinics":false
    },
    {
        "name": "SHENTON FAMILY MEDICAL CLINIC",
        "formatted_address": "#01-02 Cantonment Rd, BLK 1 The Pinnacle @ Duxton, Singapore 080001",
        "lat": 1.2761147,
        "lng": 103.8410307,
        "place_id": "ChIJVSyoe2wZ2jERbtuQlaGg50g",
        "rolled_in_clinics":false
    },
    {
        "name": "SHENTON FAMILY MEDICAL CLINIC",
        "formatted_address": "#01-268 Towner Rd, Block 102, Singapore 322102",
        "lat": 1.3207476,
        "lng": 103.8621712,
        "place_id": "ChIJoeApXtEZ2jERrgEJArGlYJY",
        "rolled_in_clinics":false
    },
    {
        "name": "SHENTON FAMILY MEDICAL CLINIC (BEDOK RESERVOIR)",
        "formatted_address": "744 Bedok Reservoir Rd, #01-3065, Singapore 470744",
        "lat": 1.3374943,
        "lng": 103.9218822,
        "place_id": "ChIJc0dot0U92jERS_KuIf_1m6g",
        "rolled_in_clinics":false
    },