 {
    "type": "FeatureCollection", 
    "features": [
        {"type": "Feature", 
            "geometry": {
                "type": "Point", 
                "coordinates": [103.849097, 1.348388]
            }, 
            "properties": {
                "name": "DA CLINIC @ BISHAN", 
                "formatted_address": "501 Bishan Street 11, #01-374, Singapore 570501",
                "lat": 1.348388, 
                "lng": 103.849097, 
                "place_id": "ChIJpfXbtScX2jERw2Y4yudtEzY", 
                "icon": "hospital"
            }
        }, 
        {"type": "Feature", 
            "geometry": {
                "type": "Point", 
                "coordinates": [103.739537, 1.376863]
            }, 
            "properties": {
                "name": "PACIFIC ADVANCE RENAL CARE (CHOA CHU KANG)", 
                "formatted_address": "Choa Chu Kang Ave 5, #01-145 Blk 488B, Singapore 682488", 
                "lat": 1.376863, 
                "lng": 103.739537, 
                "place_id": "ChIJDc7uJNsR2jERhm1hTDK68ls", 
                "icon": "hospital"
            }
        }, 
                {"type": "Feature", "geometry": {"type": "Point", "coordinates": [103.8704509, 1.3210502]}, "properties": {"name": "SHANG DENTAL (KALLANG)", "formatted_address": "71 Kallang Bahru 01, 531F, Singapore 330071", "lat": 1.3210502, "lng": 103.8704509, "place_id": "ChIJ15qegjsZ2jER5mJ2eaH5iS4", "icon": "hospital"}}, {"type": "Feature", "geometry": {"type": "Point", "coordinates": [103.9459161, 1.3574164]}, "properties": {"name": "SINGHEALTH POLYCLINICS - TAMPINES", "formatted_address": "1 Tampines Street 41, Singapore 529203", "lat": 1.3574164, "lng": 103.9459161, "place_id": "ChIJr0pVPQ892jER4AJQCrd87hM", "icon": "hospital"}}, {"type": "Feature", "geometry": {"type": "Point", "coordinates": [103.854642, 1.3626873]}, "properties": {"name": "1 MEDICAL TECK GHEE", "formatted_address": "410 Ang Mo Kio Ave 10, #01-837, Singapore 560410", "lat": 1.3626873, "lng": 103.854642, "place_id": "ChIJq6qaFB0X2jERVTzJfaiFLfw", "icon": "hospital"}}, {"type": "Feature", "geometry": {"type": "Point", "coordinates": [103.9368316, 1.3313891]}, "properties": {"name": "115 EASTPOINT CLINIC & SURGERY", "formatted_address": "115 Bedok North Rd, Singapore 460115", "lat": 1.3313891, "lng": 103.9368316, "place_id": "ChIJjbl970k92jERbh5JJVoKOiw", "icon": "hospital"}}, {"type": "Feature", "geometry": {"type": "Point", "coordinates": [103.8472365, 1.3704043]}, "properties": {"name": "1728 DENTAL PRACTICE (ANG MO KIO)", "formatted_address": "704 Ang Mo Kio Ave 8, #01-2559, Singapore 560704", "lat": 1.3704043, "lng": 103.8472365, "place_id": "ChIJUbNB4mQX2jERcBMQCK14Jzs", "icon": "hospital"}}, {"type": "Feature", "geometry": {"type": "Point", "coordinates": [103.7397319, 1.3338318]}, "properties": {"name": "1728 DENTAL PRACTICE (JURONG)", "formatted_address": "Blk, 135 Jurong Gateway Rd, #01-319, Singapore 600135", "lat": 1.3338318, "lng": 103.7397319, "place_id": "ChIJ7-N0kRUR2jERxDBs7pUoExI", "icon": "hospital"}}, {"type": "Feature", "geometry": {"type": "Point", "coordinates": [103.9541458, 1.3531703]}, "properties": {"name": "1728 DENTAL PRACTICE (TAMPINES)", "formatted_address": "Blk, 201E Tampines Street 23, #01-60, Singapore 527201", "lat": 1.3531703, "lng": 103.9541458, "place_id": "ChIJmWakvwg92jERlqn0atfUEfI", "icon": "hospital"}}, {"type": "Feature", "geometry": {"type": "Point", "coordinates": [103.8611977, 1.3195739]}, "properties": {"name": "18 CLINIC", "formatted_address": "101 Towner Rd, #01-228, Singapore 322101", "lat": 1.3195739, "lng": 103.8611977, "place_id": "ChIJqe-U-tAZ2jERwNJp4nC6404", "icon": "hospital"}}, {"type": "Feature", "geometry": {"type": "Point", "coordinates": [103.846667, 1.289114]}, "properties": {"name": "1AESTHETICS, MEDICAL & SURGERY", "formatted_address": "#14-90 The Central, 8 Eu Tong Sen St, Tower 1, Singapore 059818", "lat": 1.289114, "lng": 103.846667, "place_id": "ChIJZd4jpA8Q2jERT8WCj_4q9XA", "icon": "hospital"}}, {"type": "Feature", "geometry": {"type": "Point", "coordinates": [103.86899, 1.3503829]}, "properties": {"name": "326 AVENUE 3 CLINIC", "formatted_address": "326 Serangoon Ave 3, Singapore 550326", "lat": 1.3503829, "lng": 103.86899, "place_id": "ChIJZ6hoT6cX2jERxRR-vpo3dkU", "icon": "hospital"}}, {"type": "Feature", "geometry": {"type": "Point", "coordinates": [103.8487294, 1.3642497]}, "properties": {"name": "338 FAMILY CLINIC", "formatted_address": "338 Ang Mo Kio Ave 1, #01-1615, Singapore 560338", "lat": 1.3642497, "lng": 103.8487294, "place_id": "ChIJB-1u2OEW2jER2xZn40-GUTs", "icon": "hospital"}}, {"type": "Feature", "geometry": {"type": "Point", "coordinates": [103.8478247, 1.2993158]}, "properties": {"name": "8  MEDICAL AESTHETIC CLINIC", "formatted_address": "2 Handy Rd, #02-09 The Cathay, Singapore 229233", "lat": 1.2993158, "lng": 103.8478247, "place_id": "ChIJVVUV37wZ2jERdX2eKbDMzO8", "icon": "hospital"}}, {"type": "Feature", "geometry": {"type": "Point", "coordinates": [103.8405918, 1.3028596]}, "properties": {"name": "8 MEDICAL AESTHETIC CLINIC", "formatted_address": "51 Cuppage Rd, #01-03, Singapore 229469", "lat": 1.3028596, "lng": 103.8405918, "place_id": "ChIJ7dsyn5YZ2jERJn_idRDA1QU", "icon": "hospital"}}, {"type": "Feature", "geometry": {"type": "Point", "coordinates": [103.8372499, 1.3014488]}, "properties": {"name": "8 MEDICAL AESTHETIC CLINIC", "formatted_address": "1 Grange Rd, #06-05, Singapore 239693", "lat": 1.3014488, "lng": 103.8372499, "place_id": "ChIJ__9PF5EZ2jEReV32S0Lt9zo", "icon": "hospital"}}, {"type": "Feature", "geometry": {"type": "Point", "coordinates": [103.9436755, 1.3531219]}, "properties": {"name": "8 MEDICAL AESTHETIC CLINIC", "formatted_address": "1 Tampines Central 5, #03-02 CPF Tampines Building, Singapore 529508", "lat": 1.3531219, "lng": 103.9436755, "place_id": "ChIJ6XZyuLg92jERki2waJqdtGE", "icon": "hospital"}}, {"type": "Feature", "geometry": {"type": "Point", "coordinates": [103.906943, 1.3018055]}, "properties": {"name": "81 FAMILY CLINIC", "formatted_address": "86 Marine Parade Central, #01-670, Singapore 440081", "lat": 1.3018055, "lng": 103.906943, "place_id": "ChIJayfd33MY2jER7S2OSspi-og", "icon": "hospital"}}, {"type": "Feature", "geometry": {"type": "Point", "coordinates": [103.7898256, 1.4417006]}, "properties": {"name": "818 FAMILY CLINIC AND SURGERY", "formatted_address": "818 Woodlands Street 82, Singapore 730818", "lat": 1.4417006, "lng": 103.7898256, "place_id": "ChIJHZknqgkT2jERSWHbZ_4c0Qs", "icon": "hospital"}}, {"type": "Feature", "geometry": {"type": "Point", "coordinates": [103.795364, 1.437797]}, "properties": {"name": "888 PLAZA FAMILY CLINIC", "formatted_address": "Woodlands Drive 50, #01-739, 888 Plaza, Singapore 730888", "lat": 1.437797, "lng": 103.795364, "place_id": "ChIJQSkW_qAT2jERMkEGlR_I3OM", "icon": "hospital"}}, {"type": "Feature", "geometry": {"type": "Point", "coordinates": [103.8404079, 1.2995753]}, "properties": {"name": "@JUST BRACES.DENTAL CENTRE", "formatted_address": "3 Killiney Road #09-02, House 1 Winsland, Singapore 239519", "lat": 1.2995753, "lng": 103.8404079, "place_id": "ChIJ_7XvBpgZ2jER1dbvpXx3U18", "icon": "hospital"}}, {"type": "Feature", "geometry": {"type": "Point", "coordinates": [103.7905411, 1.4311694]}, "properties": {"name": "A & A CLINIC", "formatted_address": "570B Woodlands Ave 1, Singapore 732570", "lat": 1.4311694, "lng": 103.7905411, "place_id": "ChIJS6iqxqQT2jERevi6xwNmkYs", "icon": "hospital"}}, {"type": "Feature", "geometry": {"type": "Point", "coordinates": [103.8378823, 1.3419413]}, "properties": {"name": "A CLINIC FOR WOMEN", "formatted_address": "820 Thomson Rd, Singapore 574623", "lat": 1.3419413, "lng": 103.8378823, "place_id": "ChIJ0yUHzEYX2jERjwP0e9XyUpk", "icon": "hospital"}}, {"type": "Feature", "geometry": {"type": "Point", "coordinates": [103.8239356, 1.3032056]}, "properties": {"name": "A COMPANY FOR WOMEN, OBSTETRICS & GYNAECOLOGY", "formatted_address": "Camden Medical Centre #03-05/06, 1 Orchard Boulevard (S)248649, Singapore 248649", "lat": 1.3032056, "lng": 103.8239356, "place_id": "ChIJ5Rw7hokZ2jERoH4GnL-uu8U", "icon": "hospital"}}, {"type": "Feature", "geometry": {"type": "Point", "coordinates": [103.765368, 1.313578]}, "properties": {"name": "A DENTAL CLINIC @ CLEMENTI CENTRAL PTE LTD", "formatted_address": "450 Clementi Ave 3, Singapore 120450", "lat": 1.313578, "lng": 103.765368, "place_id": "ChIJv8YoMo4a2jERHWne_4aSz3g", "icon": "hospital"}}, {"type": "Feature", "geometry": {"type": "Point", "coordinates": [103.7396889, 1.333747]}, "properties": {"name": "A DENTAL CLINIC @ JURONG EAST CENTRAL", "formatted_address": "135 Jurong Gateway Rd, #01-333, Singapore 600135", "lat": 1.333747, "lng": 103.7396889, "place_id": "ChIJlZoVmwUQ2jERMzVrQRk0AZg", "icon": "hospital"}}, {"type": "Feature", "geometry": {"type": "Point", "coordinates": [103.8414768, 1.3254202]}, "properties": {"name": "A L LIM CLINIC FOR WOMEN PTE LTD", "formatted_address": "339, Thomson Rd, #05-04, Thomson Medical Centre, Singapore 307677, Singapore 307677", "lat": 1.3254202, "lng": 103.8414768, "place_id": "ChIJD68vtOEZ2jERLbipbklMp3k", "icon": "hospital"}}, {"type": "Feature", "geometry": {"type": "Point", "coordinates": [103.8441968, 1.3207882]}, "properties": {"name": "A LIFE CLINIC PTE LTD", "formatted_address": "11 Sinaran Dr, #09-21, Singapore 307506", "lat": 1.3207882, "lng": 103.8441968, "place_id": "ChIJv-s_XecZ2jERZhWQEVvShX8", "icon": "hospital"}}, {"type": "Feature", "geometry": {"type": "Point", "coordinates": [103.851346, 1.291359]}, "properties": {"name": "A LINE DENTAL BRACES CLINIC PTE LTD", "formatted_address": "1 Coleman St, #03-01, The Adelphi, Singapore 179803", "lat": 1.291359, "lng": 103.851346, "place_id": "ChIJdabgLqcZ2jERwl76hOAso4Q", "icon": "hospital"}}, {"type": "Feature", "geometry": {"type": "Point", "coordinates": [103.851346, 1.291359]}, "properties": {"name": "A LINE DENTAL BRACES CLINIC PTE LTD", "formatted_address": "1 Coleman St, #03-01, The Adelphi, Singapore 179803", "lat": 1.291359, "lng": 103.851346, "place_id": "ChIJdabgLqcZ2jERwl76hOAso4Q", "icon": "hospital"}}, {"type": "Feature", "geometry": {"type": "Point", "coordinates": [103.8400579, 1.2774492]}, "properties": {"name": "A MEDICAL CLINIC", "formatted_address": "1, #01-27 Everton Park, Singapore 081001", "lat": 1.2774492, "lng": 103.8400579, "place_id": "ChIJhx9BYC0Z2jERGf6RH1XR96w", "icon": "hospital"}}, {"type": "Feature", "geometry": {"type": "Point", "coordinates": [103.8440425, 1.3222438]}, "properties": {"name": "A SPECIALIST CLINIC FOR SINUS, SNORING & ENT", "formatted_address": "38 Irrawaddy Rd, #08-45 Mount Elizabeth, Singapore 329563", "lat": 1.3222438, "lng": 103.8440425, "place_id": "ChIJlZP8nTwZ2jERaf4MV1D4gwo", "icon": "hospital"}}, {"type": "Feature", "geometry": {"type": "Point", "coordinates": [103.8507699, 1.3627158]}, "properties": {"name": "A ST*R DENTAL SURGERY", "formatted_address": "330 Ang Mo Kio Ave 1, Singapore 560330", "lat": 1.3627158, "lng": 103.8507699, "place_id": "ChIJBSOzCh4X2jERcS6CFa9QgkE", "icon": "hospital"}}, {"type": "Feature", "geometry": {"type": "Point", "coordinates": [103.7862514, 1.3081064]}, "properties": {"name": "A ST*R DENTAL SURGERY", "formatted_address": "25 Ghim Moh Link, #01-09, Singapore 270025", "lat": 1.3081064, "lng": 103.7862514, "place_id": "ChIJE6xHY10a2jERXDvtHmi_n0o", "icon": "hospital"}}, {"type": "Feature", "geometry": {"type": "Point", "coordinates": [103.8441579, 1.298146]}, "properties": {"name": "A&M MEDICAL CENTRE", "formatted_address": "190 Clemenceau Ave, Singapore 239924", "lat": 1.298146, "lng": 103.8441579, "place_id": "ChIJU25fA5gZ2jERRUq9PpbdiUA", "icon": "hospital"}}, {"type": "Feature", "geometry": {"type": "Point", "coordinates": [103.8559103, 1.3678807]}, "properties": {"name": "A+FFORDABLE CLINIC (AMK AVE 10)", "formatted_address": "449 Ang Mo Kio Ave 10, #01-1715, Singapore 560449", "lat": 1.3678807, "lng": 103.8559103, "place_id": "ChIJF3XUsOwX2jEROmRs9hbhFvk", "icon": "hospital"}}, {"type": "Feature", "geometry": {"type": "Point", "coordinates": [103.8855871, 1.3729813]}, "properties": {"name": "A+FFORDABLE CLINIC (HOUGANG)", "formatted_address": "681 Hougang Ave 8, #01-829, Singapore 530681", "lat": 1.3729813, "lng": 103.8855871, "place_id": "ChIJrwvUueYX2jERtiXiYCt8DW8", "icon": "hospital"}}, {"type": "Feature", "geometry": {"type": "Point", "coordinates": [103.8354081, 1.3052083]}, "properties": {"name": "A. B. JOHN EAR, NOSE & THROAT CLINIC & SURGERY", "formatted_address": "3 Mount Elizabeth, Singapore 228510", "lat": 1.3052083, "lng": 103.8354081, "place_id": "ChIJuaCiV5IZ2jERsjxfrFMpCs8", "icon": "hospital"}}, {"type": "Feature", "geometry": {"type": "Point", "coordinates": [103.7642185, 1.31486]}, "properties": {"name": "A.M AESTHETICS", "formatted_address": "3155 Commonwealth Ave W, Singapore 129588", "lat": 1.31486, "lng": 103.7642185, "place_id": "ChIJq8UGJo4a2jER0ypiQDLiXpg", "icon": "hospital"}}, {"type": "Feature", "geometry": {"type": "Point", "coordinates": [103.9290153, 1.3247447]}, "properties": {"name": "A.M. AESTHETICS", "formatted_address": "311 New Upper Changi Rd, #B1-18 Bedok Mall, Singapore 467360", "lat": 1.3247447, "lng": 103.9290153, "place_id": "ChIJQx9kaDkj2jERm4bkNcniDe0", "icon": "hospital"}}, {"type": "Feature", "geometry": {"type": "Point", "coordinates": [103.744937, 1.3851131]}, "properties": {"name": "A.M.AESTHETICS", "formatted_address": "21 Choa Chu Kang Ave 4, Singapore 689812", "lat": 1.3851131, "lng": 103.744937, "place_id": "ChIJs5CBlukR2jER-uyFhQ2NFbU", "icon": "hospital"}}, {"type": "Feature", "geometry": {"type": "Point", "coordinates": [103.9300788, 1.3283185]}, "properties": {"name": "A1 MEDICAL CLINIC", "formatted_address": "418 Bedok North Ave 2, #01-63, Singapore 460418", "lat": 1.3283185, "lng": 103.9300788, "place_id": "ChIJEX20Y3s92jERNK5KRZhRZiQ", "icon": "hospital"}}, {"type": "Feature", "geometry": {"type": "Point", "coordinates": [103.6293981, 1.2835363]}, "properties": {"name": "ABBOTT MANUFACTURING SINGAPORE MEDICAL CENTRE", "formatted_address": "26 Tuas South Ave 10, Singapore 637437", "lat": 1.2835363, "lng": 103.6293981, "place_id": "ChIJqWvLXYQG2jERD-F-rJBBD8A", "icon": "hospital"}}, {"type": "Feature", "geometry": {"type": "Point", "coordinates": [103.8359847, 1.3058982]}, "properties": {"name": "ABEL SOH DIABETES, THYROID AND ENDOCRINE CLINIC", "formatted_address": "3 Mount Elizabeth, #07-08 Medical Centre, Singapore 228510", "lat": 1.3058982, "lng": 103.8359847, "place_id": "ChIJ5VLEUJIZ2jERlLaohmLFcjY", "icon": "hospital"}}, {"type": "Feature", "geometry": {"type": "Point", "coordinates": [103.9535801, 1.3523325]}, "properties": {"name": "ABLE MEDICAL", "formatted_address": "Tampines Street 21 #01-1129 Block, 201D, Singapore 524201", "lat": 1.3523325, "lng": 103.9535801, "place_id": "ChIJ9WUxFBs92jERevyJNl6HjKQ", "icon": "hospital"}}, {"type": "Feature", "geometry": {"type": "Point", "coordinates": [103.8447218, 1.3200182]}, "properties": {"name": "ABOUT BRACES DENTAL SURGERY", "formatted_address": "8, #06-01 Sinaran Dr, Novena Specialist Center, Singapore 307470", "lat": 1.3200182, "lng": 103.8447218, "place_id": "ChIJO9Azid0Z2jERtZwHJ7vuKMA", "icon": "hospital"}}, {"type": "Feature", "geometry": {"type": "Point", "coordinates": [103.8353591, 1.303864]}, "properties": {"name": "ABRAHAM'S EAR, NOSE & THROAT SURGERY PTE LTD", "formatted_address": "290 Orchard Rd, #11-10, Singapore 238859", "lat": 1.303864, "lng": 103.8353591, "place_id": "ChIJVQ5qMpIZ2jERvrtd5puiGpc", "icon": "hospital"}}, {"type": "Feature", "geometry": {"type": "Point", "coordinates": [103.8613173, 1.3179759]}, "properties": {"name": "ABSOLUTE FAMILY DENTAL", "formatted_address": "#01-41 Boon Keng Rd, Blk 22, Singapore 330022", "lat": 1.3179759, "lng": 103.8613173, "place_id": "ChIJvZ8vgucZ2jERS9LgaEsuwVo", "icon": "hospital"}}, {"type": "Feature", "geometry": {"type": "Point", "coordinates": [103.8697293, 1.3287481]}, "properties": {"name": "ABSOLUTE SMILE DENTAL", "formatted_address": "2 Tai Thong Cres, #01-04 S347836 The Venue Residences & Shoppes, Singapore 347836", "lat": 1.3287481, "lng": 103.8697293, "place_id": "ChIJB4bgjCwX2jERpSMq1b8gOJQ", "icon": "hospital"}}, {"type": "Feature", "geometry": {"type": "Point", "coordinates": [103.802763, 1.2817861]}, "properties": {"name": "ACACIA MEDICAL CLINIC", "formatted_address": "182 Depot Rd, #01-07, Singapore 109684", "lat": 1.2817861, "lng": 103.802763, "place_id": "ChIJgQkh3Mgb2jER4JyUIHj648k", "icon": "hospital"}}, {"type": "Feature", "geometry": {"type": "Point", "coordinates": [103.8267886, 1.2854546]}, "properties": {"name": "ACCENT DENTAL SURGERY (JM) PTE LTD", "formatted_address": "18 Jln Membina, Singapore 164018", "lat": 1.2854546, "lng": 103.8267886, "place_id": "ChIJkynFt34Z2jERJJWcig6zzyk", "icon": "hospital"}}, {"type": "Feature", "geometry": {"type": "Point", "coordinates": [103.8552799, 1.367823]}, "properties": {"name": "ACCENT DENTAL SURGERY PTE LTD", "formatted_address": "446 Ang Mo Kio Ave 10, Singapore 560446", "lat": 1.367823, "lng": 103.8552799, "place_id": "ChIJC3ZRsfwW2jERboGhuiTs2dw", "icon": "hospital"}}, {"type": "Feature", "geometry": {"type": "Point", "coordinates": [103.7433203, 1.3480129]}, "properties": {"name": "ACCESS MEDICAL (BUKIT BATOK)", "formatted_address": "164 Bukit Batok Street 11, #01-152, Singapore 650164", "lat": 1.3480129, "lng": 103.7433203, "place_id": "ChIJpaiTAD0Q2jERJgCbLWoI-I4", "icon": "hospital"}}, {"type": "Feature", "geometry": {"type": "Point", "coordinates": [103.8858078, 1.3235598]}, "properties": {"name": "ACCESS MEDICAL (CIRCUIT ROAD)", "formatted_address": "88 Circuit Rd, #01-965, Singapore 370088", "lat": 1.3235598, "lng": 103.8858078, "place_id": "ChIJOeGIKiEY2jERhM-WF8oUN-E", "icon": "hospital"}}, {"type": "Feature", "geometry": {"type": "Point", "coordinates": [103.9347819, 1.3203531]}, "properties": {"name": "ACCESS MEDICAL (EAST COAST)", "formatted_address": "18 Bedok S Rd, #01-69, Singapore 460018", "lat": 1.3203531, "lng": 103.9347819, "place_id": "ChIJU75ZirYi2jER7rU2fssCNzc", "icon": "hospital"}}, {"type": "Feature", "geometry": {"type": "Point", "coordinates": [103.7233362, 1.350537]}, "properties": {"name": "ACCESS MEDICAL (JURONG WEST)", "formatted_address": "463 Jurong West Street 41, #01-564, Singapore 640463", "lat": 1.350537, "lng": 103.7233362, "place_id": "ChIJd0Y6q94P2jEROd-zBfwdHiU", "icon": "hospital"}}, {"type": "Feature", "geometry": {"type": "Point", "coordinates": [103.8565064, 1.3352397]}, "properties": {"name": "ACCESS MEDICAL (KIM KEAT)", "formatted_address": "19 Lor 7 Toa Payoh, #01-272, Singapore 310019", "lat": 1.3352397, "lng": 103.8565064, "place_id": "ChIJZfXXrnoX2jERWYXfgo6M1qw", "icon": "hospital"}}, {"type": "Feature", "geometry": {"type": "Point", "coordinates": [103.818674, 1.286941]}, "properties": {"name": "ACCESS MEDICAL (REDHILL CLOSE)", "formatted_address": "86 Redhill Cl, #01-600, Singapore 150086", "lat": 1.286941, "lng": 103.818674, "place_id": "ChIJ-7nc_9Qb2jERJBeIeIaHOO8", "icon": "hospital"}}, {"type": "Feature", "geometry": {"type": "Point", "coordinates": [103.9336644, 1.3565775]}, "properties": {"name": "ACCESS MEDICAL (TAMPINES 730)", "formatted_address": "730 Tampines Street 71, #01-51, Singapore 520730", "lat": 1.3565775, "lng": 103.9336644, "place_id": "ChIJ__8PtHM92jERuQtSkzWkelA", "icon": "hospital"}}, {"type": "Feature", "geometry": {"type": "Point", "coordinates": [103.8517706, 1.3350153]}, "properties": {"name": "ACCESS MEDICAL (TOA PAYOH)", "formatted_address": "66 Lor 4 Toa Payoh, #01-315, Singapore 310066", "lat": 1.3350153, "lng": 103.8517706, "place_id": "ChIJP-oe7GUX2jERXvHNuP2TAdA", "icon": "hospital"}}, {"type": "Feature", "geometry": {"type": "Point", "coordinates": [103.8556005, 1.3231634]}, "properties": {"name": "ACCESS MEDICAL (WHAMPOA)", "formatted_address": "87 Whampoa Dr, #01-869, Singapore 320087", "lat": 1.3231634, "lng": 103.8556005, "place_id": "ChIJa8Na29kZ2jERe6rBbFzQQ14", "icon": "hospital"}}, {"type": "Feature", "geometry": {"type": "Point", "coordinates": [103.940405, 1.324603]}, "properties": {"name": "ACCESS MEDICAL BEDOK SOUTH", "formatted_address": "59 New Upper Changi Rd, #01-1268, Singapore 461059", "lat": 1.324603, "lng": 103.940405, "place_id": "ChIJf5FX2Moi2jER7fbXNrEqLHk", "icon": "hospital"}}, {"type": "Feature", "geometry": {"type": "Point", "coordinates": [103.8361743, 1.3043349]}, "properties": {"name": "ACCLARO CLINIC", "formatted_address": "290 Orchard Rd, #12-01 Paragon Medical, Singapore 238859", "lat": 1.3043349, "lng": 103.8361743, "place_id": "ChIJz_OUJqMZ2jER1_GpFAgRVz8", "icon": "hospital"}}, {"type": "Feature", "geometry": {"type": "Point", "coordinates": [103.9576814, 1.3690369]}, "properties": {"name": "ACCORD DENTAL CLINIC", "formatted_address": "442 Pasir Ris Drive 6, #01-26, Singapore 510442", "lat": 1.3690369, "lng": 103.9576814, "place_id": "ChIJx94Ziqw92jERm9BG_khctcc", "icon": "hospital"}}, {"type": "Feature", "geometry": {"type": "Point", "coordinates": [103.903984, 1.3276889]}, "properties": {"name": "ACCORD MEDICAL CLINIC", "formatted_address": "325 Ubi Ave 1, Singapore 400325", "lat": 1.3276889, "lng": 103.903984, "place_id": "ChIJyUg2OfgX2jERMnK1O7k8tLI", "icon": "hospital"}}, {"type": "Feature", "geometry": {"type": "Point", "coordinates": [103.847064, 1.333005]}, "properties": {"name": "ACCRELIST MEDICAL AESTHETICS", "formatted_address": "500 Lorong 6 Toa Payoh #B1-30 Singapore 310500 Lor 6 Toa Payoh, Singapore 310500", "lat": 1.333005, "lng": 103.847064, "place_id": "ChIJ8S9GBWcX2jERjuH62DGYxPc", "icon": "hospital"}}, {"type": "Feature", "geometry": {"type": "Point", "coordinates": [103.8489979, 1.3638964]}, "properties": {"name": "ACE DENTAL CENTRE", "formatted_address": "338 Ang Mo Kio Ave 1, Singapore 560338", "lat": 1.3638964, "lng": 103.8489979, "place_id": "ChIJB-1u2OEW2jERynMEqux7sWI", "icon": "hospital"}}, {"type": "Feature", "geometry": {"type": "Point", "coordinates": [103.8489979, 1.3638964]}, "properties": {"name": "ACE DENTAL CENTRE @ BT BATOK", "formatted_address": "338 Ang Mo Kio Ave 1, Singapore 560338", "lat": 1.3638964, "lng": 103.8489979, "place_id": "ChIJB-1u2OEW2jERynMEqux7sWI", "icon": "hospital"}}, {"type": "Feature", "geometry": {"type": "Point", "coordinates": [103.9407193, 1.3244969]}, "properties": {"name": "ACE FAMILY DENTALCARE", "formatted_address": "56 New Upper Changi Rd, Singapore", "lat": 1.3244969, "lng": 103.9407193, "place_id": "ChIJg_24Bcsi2jER3vY8tki77js", "icon": "hospital"}}, {"type": "Feature", "geometry": {"type": "Point", "coordinates": [103.8379245, 1.3418982]}, "properties": {"name": "ACE UROLOGY CLINIC & SURGERY", "formatted_address": "820 Thomson Road,, #07-56 Mount Alvernia Medical Centre D, Singapore 574623", "lat": 1.3418982, "lng": 103.8379245, "place_id": "ChIJR7zMwEYX2jERJVyJ4tNS1KU", "icon": "hospital"}}, {"type": "Feature", "geometry": {"type": "Point", "coordinates": [103.8415069, 1.3253946]}, "properties": {"name": "ACJ WOMEN'S CLINIC PTE LTD", "formatted_address": "339 Thomson Rd, #06-04 Thomson Medical Centre, Singapore 307677", "lat": 1.3253946, "lng": 103.8415069, "place_id": "ChIJkw_4yeEZ2jERhbxrVwQnVJk", "icon": "hospital"}}, {"type": "Feature", "geometry": {"type": "Point", "coordinates": [103.8380346, 1.341754]}, "properties": {"name": "ACJ WOMEN'S CLINIC PTE LTD", "formatted_address": "820 Thomson Road Mount Alvernia Medical Center D #07-63, Singapore 574623", "lat": 1.341754, "lng": 103.8380346, "place_id": "ChIJkw_4yeEZ2jERwrIbwvH0nRY", "icon": "hospital"}}, {"type": "Feature", "geometry": {"type": "Point", "coordinates": [103.8372675, 1.3015175]}, "properties": {"name": "ACMS MEDICAL CLINIC", "formatted_address": "1 Grange Rd, #06-06, Singapore 239693", "lat": 1.3015175, "lng": 103.8372675, "place_id": "ChIJNUA7F5EZ2jEReRcnEx5pq68", "icon": "hospital"}}, {"type": "Feature", "geometry": {"type": "Point", "coordinates": [103.8199098, 1.3074132]}, "properties": {"name": "ACUFEM WOMEN'S SPECIALIST SERVICES", "formatted_address": "Annex Block 6A, Napier Road, Suite #05-38, Gleneagles Hospital, Singapore 258500", "lat": 1.3074132, "lng": 103.8199098, "place_id": "ChIJD4YgJSAa2jER_xv4Ih9nGY0", "icon": "hospital"}}, {"type": "Feature", "geometry": {"type": "Point", "coordinates": [103.705824, 1.3395641]}, "properties": {"name": "ACUFEM WOMEN'S SPECIALIST SERVICES", "formatted_address": "1 Jurong West Central 2, Singapore 648886", "lat": 1.3395641, "lng": 103.705824, "place_id": "ChIJa9YM2-wP2jERmOUStQKyiS0", "icon": "hospital"}}, {"type": "Feature", "geometry": {"type": "Point", "coordinates": [103.8524453, 1.2842345]}, "properties": {"name": "ACUMED MEDICAL GROUP", "formatted_address": "16, #02-03 Collyer Quay, Income At Raffles, Singapore 049318", "lat": 1.2842345, "lng": 103.8524453, "place_id": "ChIJK5DQPWQZ2jERV9bB1KLc23s", "icon": "hospital"}}, {"type": "Feature", "geometry": {"type": "Point", "coordinates": [103.7053874, 1.3393411]}, "properties": {"name": "ACUMED MEDICAL GROUP", "formatted_address": "1 Jurong West Central 2, 19E Jurong Point, #B1A, Singapore 648886", "lat": 1.3393411, "lng": 103.7053874, "place_id": "ChIJmRnrx-wP2jERwiEreLONpqU", "icon": "hospital"}}, {"type": "Feature", "geometry": {"type": "Point", "coordinates": [103.74281, 1.3211511]}, "properties": {"name": "ACUMED MEDICAL GROUP", "formatted_address": "38 Teban Gardens Rd, #01-318/319, Singapore 600038", "lat": 1.3211511, "lng": 103.74281, "place_id": "ChIJ7al2zKUa2jER23XNvaMbc1g", "icon": "hospital"}}, {"type": "Feature", "geometry": {"type": "Point", "coordinates": [103.7820991, 1.4379153]}, "properties": {"name": "ACUMED MEDICAL GROUP", "formatted_address": "111, #01-78 Woodlands Street 13, Singapore 730111", "lat": 1.4379153, "lng": 103.7820991, "place_id": "ChIJGVn5vVIS2jERE8Uxk5gOO34", "icon": "hospital"}}, {"type": "Feature", "geometry": {"type": "Point", "coordinates": [103.722505, 1.3324198]}, "properties": {"name": "ACUMED MEDICAL GROUP", "formatted_address": "64 Yung Kuang Rd, #01-107/111, Singapore 610064", "lat": 1.3324198, "lng": 103.722505, "place_id": "ChIJJxLa-vsP2jERNKhcxWlQjuQ", "icon": "hospital"}}, {"type": "Feature", "geometry": {"type": "Point", "coordinates": [103.651887, 1.316869]}, "properties": {"name": "ACUMED MEDICAL GROUP", "formatted_address": "71, #01-06 Pioneer Rd, Tuas Amenity Centre, Singapore 639591", "lat": 1.316869, "lng": 103.651887, "place_id": "ChIJTcHyPMgF2jERHQXIRylpt1w", "icon": "hospital"}}, {"type": "Feature", "geometry": {"type": "Point", "coordinates": [103.7058398, 1.3383863]}, "properties": {"name": "ACUMED MEDICAL GROUP", "formatted_address": "301 Boon Lay Way, #01-18/19 Boon Lay MRT, Singapore 649846", "lat": 1.3383863, "lng": 103.7058398, "place_id": "ChIJr-kR6OwP2jERrIaMsBlNn1c", "icon": "hospital"}}, {"type": "Feature", "geometry": {"type": "Point", "coordinates": [103.9324759, 1.3258598]}, "properties": {"name": "ACUMED MEDICAL GROUP", "formatted_address": "214 Bedok North Street 1, #01-165, Singapore 460214", "lat": 1.3258598, "lng": 103.9324759, "place_id": "ChIJ0Q7xSks92jERemmbPKn_zg4", "icon": "hospital"}}, {"type": "Feature", "geometry": {"type": "Point", "coordinates": [103.6783974, 1.3264267]}, "properties": {"name": "ACUMED MEDICAL GROUP", "formatted_address": "1, #01-23 Joo Koon Cir, FairPrice Hub, Singapore 629117", "lat": 1.3264267, "lng": 103.6783974, "place_id": "ChIJ9e3t90sF2jERFcR33s3hrac", "icon": "hospital"}}, {"type": "Feature", "geometry": {"type": "Point", "coordinates": [103.6264074, 1.2893595]}, "properties": {"name": "ACUMED MEDICAL GROUP", "formatted_address": "128, #01-03 Tuas South Ave 3, JTC Space @ Tuas Biomedical Park, Singapore 637370", "lat": 1.2893595, "lng": 103.6264074, "place_id": "ChIJq6rqvIcG2jERWygyIZVET-I", "icon": "hospital"}}, {"type": "Feature", "geometry": {"type": "Point", "coordinates": [103.893029, 1.3898989]}, "properties": {"name": "ACUMED MEDICAL GROUP", "formatted_address": "215C Compassvale Dr, #01-02, Singapore 543215", "lat": 1.3898989, "lng": 103.893029, "place_id": "ChIJD7Qe4RIW2jERd9xUCvcdy8s", "icon": "hospital"}}, {"type": "Feature", "geometry": {"type": "Point", "coordinates": [103.6607242, 1.3219471]}, "properties": {"name": "ACUMED MEDICAL GROUP", "formatted_address": "JTC Space @ Tuas 14, #01-05 Tuas Ave 1, Singapore 639499", "lat": 1.3219471, "lng": 103.6607242, "place_id": "ChIJgZoTymQF2jERLS3n0vVuLME", "icon": "hospital"}}, {"type": "Feature", "geometry": {"type": "Point", "coordinates": [103.8108037, 1.3233285]}, "properties": {"name": "ADAM ROAD MEDICAL CENTRE PSYCHIATRIC & PSYCHOLOGICAL SERVICES", "formatted_address": "559 Bukit Timah Rd, Singapore 269695", "lat": 1.3233285, "lng": 103.8108037, "place_id": "ChIJ59-ajAca2jERNsZoU-U-RHU", "icon": "hospital"}}, {"type": "Feature", "geometry": {"type": "Point", "coordinates": [103.8415069, 1.3253946]}, "properties": {"name": "ADELINA WOMEN'S CLINIC", "formatted_address": "339 Thomson Rd, #06-04 Thomson Medical Centre, Singapore 307677", "lat": 1.3253946, "lng": 103.8415069, "place_id": "ChIJkw_4yeEZ2jERhbxrVwQnVJk", "icon": "hospital"}}, {"type": "Feature", "geometry": {"type": "Point", "coordinates": [103.8512472, 1.2913131]}, "properties": {"name": "ADELPHI PSYCH MEDICINE CLINIC", "formatted_address": "#04-32, The Adelphi, 1 Coleman St, Singapore 179803", "lat": 1.2913131, "lng": 103.8512472, "place_id": "ChIJfQH9J6cZ2jERQmGMqJYIGzo", "icon": "hospital"}}, {"type": "Feature", "geometry": {"type": "Point", "coordinates": [103.9345198, 1.3486114]}, "properties": {"name": "ADIDAH FAMILY CLINIC & SURGERY", "formatted_address": "821 Tampines Street 81, Singapore 520821", "lat": 1.3486114, "lng": 103.9345198, "place_id": "ChIJGyKGd2s92jERkONG-pVSU80", "icon": "hospital"}}, {"type": "Feature", "geometry": {"type": "Point", "coordinates": [103.8037955, 1.4379932]}, "properties": {"name": "ADMIRALTY FAMILY MEDICAL CLINIC", "formatted_address": "693 Woodlands Ave 6, #01-08, Singapore 730693", "lat": 1.4379932, "lng": 103.8037955, "place_id": "ChIJg_ysn3UT2jERMC40IofSfkc", "icon": "hospital"}}, {"type": "Feature", "geometry": {"type": "Point", "coordinates": [103.8008056, 1.4397745]}, "properties": {"name": "ADMIRALTY MEDICAL CENTRE", "formatted_address": "676 Woodlands Drive 71, Singapore 730676", "lat": 1.4397745, "lng": 103.8008056, "place_id": "ChIJ8f9geXUT2jERCXUgg88Hqfo", "icon": "hospital"}}, {"type": "Feature", "geometry": {"type": "Point", "coordinates": [103.8355525, 1.305436]}, "properties": {"name": "ADRIAN TAN NEUROLOGY PRACTICE PTE LTD", "formatted_address": "Adrian Tan Neurology Practice Pte Ltd, #05-09 Mount Elizabeth Medical Centre, Singapore 228510", "lat": 1.305436, "lng": 103.8355525, "place_id": "ChIJQS4O_ZIZ2jEROm5ky17ARt4", "icon": "hospital"}}, {"type": "Feature", "geometry": {"type": "Point", "coordinates": [103.8440388, 1.322236]}, "properties": {"name": "ADULT & CHILD EYE (ACE) CLINIC", "formatted_address": "Mt Elizabeth Novena Specialist Centre located within Mt Elizabeth Novena Hospital, 38 Irrawaddy Rd, #07-43, Singapore 329563", "lat": 1.322236, "lng": 103.8440388, "place_id": "ChIJ87OAXBIZ2jERw8RTf7I43zs", "icon": "hospital"}}, {"type": "Feature", "geometry": {"type": "Point", "coordinates": [103.843237, 1.320605]}, "properties": {"name": "ADULT & CHILD PSYCHOLOGICAL WELLNESS CLINIC", "formatted_address": "101 Irrawaddy Rd, #13-05 Royal Square at Novena, Singapore 329565", "lat": 1.320605, "lng": 103.843237, "place_id": "ChIJUwTgFI0Z2jERIFvajMpfejc", "icon": "hospital"}}, {"type": "Feature", "geometry": {"type": "Point", "coordinates": [103.9019822, 1.3311246]}, "properties": {"name": "ADVANCE CLINIC & SURGERY PTE LTD", "formatted_address": "301 Ubi Ave 1, #01-269, Singapore 400301", "lat": 1.3311246, "lng": 103.9019822, "place_id": "ChIJV3uiq_AX2jERfKRJBRcWfPM", "icon": "hospital"}}, {"type": "Feature", "geometry": {"type": "Point", "coordinates": [103.8610927, 1.3194406]}, "properties": {"name": "ADVANCE DIALYSIS SERVICES PTE LTD", "formatted_address": "101 Towner Rd, #01-214, Singapore 322101", "lat": 1.3194406, "lng": 103.8610927, "place_id": "ChIJdUi9XecZ2jEROnHdHQxIUIc", "icon": "hospital"}}, {"type": "Feature", "geometry": {"type": "Point", "coordinates": [103.8856679, 1.3619618]}, "properties": {"name": "ADVANCE RENAL CARE (KOVAN)", "formatted_address": "21 Simon Rd, Singapore 545907", "lat": 1.3619618, "lng": 103.8856679, "place_id": "ChIJlZY_g7QX2jERmLGS3DT0wwk", "icon": "hospital"}}, {"type": "Feature", "geometry": {"type": "Point", "coordinates": [103.8440388, 1.322236]}, "properties": {"name": "ADVANCE RENAL CARE (NOVENA)", "formatted_address": "C/O Mt Elizabeth Novena Hospital, 38 Irrawaddy Road, #0301-0305, Level 3, Singapore 329563", "lat": 1.322236, "lng": 103.8440388, "place_id": "ChIJ13TereAZ2jERF9EF-NAm1uI", "icon": "hospital"}}, {"type": "Feature", "geometry": {"type": "Point", "coordinates": [103.836086, 1.304246]}, "properties": {"name": "ADVANCE SURGICAL GROUP PTE  LTD", "formatted_address": "290 Orchard Road #18-01 Paragon, Medical, Tower (Lobby 2 Orchard, Singapore 238859", "lat": 1.304246, "lng": 103.836086, "place_id": "ChIJ65ECvRkZ2jER0Ojn0Dsv5p8", "icon": "hospital"}}, {"type": "Feature", "geometry": {"type": "Point", "coordinates": [103.819453, 1.307945]}, "properties": {"name": "ADVANCED CENTRE FOR REPRODUCTIVE MEDICINE PTE. LTD.", "formatted_address": "6a Napier Rd, #05-35, Singapore 258500", "lat": 1.307945, "lng": 103.819453, "place_id": "ChIJaT10PiAa2jERVOV8UCpm06k", "icon": "hospital"}}, {"type": "Feature", "geometry": {"type": "Point", "coordinates": [103.8559023, 1.3680467]}, "properties": {"name": "ADVANCED DENTAL ANG MO KIO", "formatted_address": "449 Ang Mo Kio Ave 10, #01-1719, Singapore 560449", "lat": 1.3680467, "lng": 103.8559023, "place_id": "ChIJ2c0oTuMW2jEROzyPNtwjOR4", "icon": "hospital"}}, {"type": "Feature", "geometry": {"type": "Point", "coordinates": [103.9407213, 1.3246277]}, "properties": {"name": "ADVANCED DENTAL BEDOK", "formatted_address": "Blk 56 New Upper Changi Road #01-1294, Singapore 461056", "lat": 1.3246277, "lng": 103.9407213, "place_id": "ChIJlazJQcsi2jERdd83HqfsStw", "icon": "hospital"}}, {"type": "Feature", "geometry": {"type": "Point", "coordinates": [103.7731293, 1.3779201]}, "properties": {"name": "ADVANCED DENTAL CLINIC BUKIT PANJANG PTE LTD", "formatted_address": "Blk 258 bukit panjang ring road #01-60 bukit panjang new town, Singapore 670258", "lat": 1.3779201, "lng": 103.7731293, "place_id": "ChIJF_2oOqcR2jERVhebRnv6SzI", "icon": "hospital"}}, {"type": "Feature", "geometry": {"type": "Point", "coordinates": [103.724312, 1.348742]}, "properties": {"name": "ADVANCED DENTAL CLINIC JURONG WEST PTE LTD", "formatted_address": "Blk 498 Jurong West St 41 #01-482, Singapore 640498", "lat": 1.348742, "lng": 103.724312, "place_id": "ChIJIzVKjN4P2jERN2c6r6zQ-3M", "icon": "hospital"}}, {"type": "Feature", "geometry": {"type": "Point", "coordinates": [103.9646718, 1.3663058]}, "properties": {"name": "ADVANCED DENTAL CLINIC PASIR RIS PTE LTD", "formatted_address": "259 Pasir Ris Street 21, #02-32 Loyang Point, Singapore 510259", "lat": 1.3663058, "lng": 103.9646718, "place_id": "ChIJNblIaVQ82jERwr-SHLY5Wrg", "icon": "hospital"}}, {"type": "Feature", "geometry": {"type": "Point", "coordinates": [103.9046341, 1.391935]}, "properties": {"name": "ADVANCED DENTAL CLINIC SENGKANG", "formatted_address": "11 Rivervale Cres, #02-12 Rivervale Mall, Singapore 545082", "lat": 1.391935, "lng": 103.9046341, "place_id": "ChIJ__97MwUW2jERESdJXNZz-HU", "icon": "hospital"}}, {"type": "Feature", "geometry": {"type": "Point", "coordinates": [103.871142, 1.354041]}, "properties": {"name": "ADVANCED DENTAL CLINIC SERANGOON PTE LTD", "formatted_address": "Blk 254 Serangoon Central Drive #01-213, Singapore 550254", "lat": 1.354041, "lng": 103.871142, "place_id": "ChIJw9SzLaYX2jERdPWUGTnJoGU", "icon": "hospital"}}, {"type": "Feature", "geometry": {"type": "Point", "coordinates": [103.952521, 1.361307]}, "properties": {"name": "ADVANCED DENTAL TAMPINES", "formatted_address": "Blk 482, #01-238 Tampines Street 43, Singapore 520482", "lat": 1.361307, "lng": 103.952521, "place_id": "ChIJUyHwAwc92jER7xtiXTPdnbM", "icon": "hospital"}}, {"type": "Feature", "geometry": {"type": "Point", "coordinates": [103.8565218, 1.335236]}, "properties": {"name": "ADVANCED DENTAL TOA PAYOH", "formatted_address": "#01-270 Lor 7 Toa Payoh, Block 19, Singapore 310019", "lat": 1.335236, "lng": 103.8565218, "place_id": "ChIJvcBUVWUX2jERY2Z6vkXx8Ag", "icon": "hospital"}}, {"type": "Feature", "geometry": {"type": "Point", "coordinates": [103.8198871, 1.3076528]}, "properties": {"name": "ADVANCED LAPAROSCOPIC SURGERY", "formatted_address": "6A Napier Road, #03-37C, Annexe Block, Gleneagles Hospital, Singapore 258500", "lat": 1.3076528, "lng": 103.8198871, "place_id": "ChIJb5qv40Eb2jERH3JBq0tntOY", "icon": "hospital"}}, {"type": "Feature", "geometry": {"type": "Point", "coordinates": [103.7929803, 1.301152]}, "properties": {"name": "ADVANCED MEDICINE IMAGING", "formatted_address": "#01-02/03 Amnios, 1 Biopolis Dr, Singapore 138622", "lat": 1.301152, "lng": 103.7929803, "place_id": "ChIJ__-_gEYa2jERObq_jIAXReM", "icon": "hospital"}}, {"type": "Feature", "geometry": {"type": "Point", "coordinates": [103.8440388, 1.322236]}, "properties": {"name": "ADVANCED UROLOGY", "formatted_address": "38 Irrawaddy Rd, Suite 07-40, Singapore 329563", "lat": 1.322236, "lng": 103.8440388, "place_id": "ChIJQRt-Mu0Z2jERJmrJGfzMbW0", "icon": "hospital"}}, {"type": "Feature", "geometry": {"type": "Point", "coordinates": [103.8355382, 1.305243]}, "properties": {"name": "ADVANCED UROLOGY", "formatted_address": "#17-14, Mount Elizabeth Hospital, 3 Mount Elizabeth, Singapore 228510", "lat": 1.305243, "lng": 103.8355382, "place_id": "ChIJZZTPHZMZ2jEROUAihjt7il8", "icon": "hospital"}}, {"type": "Feature", "geometry": {"type": "Point", "coordinates": [103.9088976, 1.3150814]}, "properties": {"name": "ADVANCED UROLOGY", "formatted_address": "319, #02-05 Joo Chiat Pl, Parkway East Medical Centre, Singapore 427989", "lat": 1.3150814, "lng": 103.9088976, "place_id": "ChIJP42nzQgY2jERWz7LZ9UuDX4", "icon": "hospital"}}, {"type": "Feature", "geometry": {"type": "Point", "coordinates": [103.8545562, 1.3127619]}, "properties": {"name": "ADVANCED UROLOGY", "formatted_address": "1 Farrer Park Station Rd, Singapore 217562", "lat": 1.3127619, "lng": 103.8545562, "place_id": "ChIJ53fs28UZ2jERUFnSHsbpZns", "icon": "hospital"}}, {"type": "Feature", "geometry": {"type": "Point", "coordinates": [103.8198592, 1.3074198]}, "properties": {"name": "ADVANCED UROLOGY", "formatted_address": "6 Napier Rd, #04-16, Singapore 258499", "lat": 1.3074198, "lng": 103.8198592, "place_id": "ChIJuWj-GCAa2jERtjvpjAgpQco", "icon": "hospital"}}, {"type": "Feature", "geometry": {"type": "Point", "coordinates": [103.8440388, 1.322236]}, "properties": {"name": "ADVANCED VASCULAR & ENDOVASCULAR CLINIC", "formatted_address": "38 Irrawaddy Rd, Singapore 329563", "lat": 1.322236, "lng": 103.8440388, "place_id": "ChIJuXIgreAZ2jERRYNtlZEQhhA", "icon": "hospital"}}, {"type": "Feature", "geometry": {"type": "Point", "coordinates": [103.8379548, 1.3419083]}, "properties": {"name": "ADVANCED VASCULAR CENTRE", "formatted_address": "820 Thomson Road, 05-58, Mount Alvernia Hospital, Singapore 574623, Singapore 574623", "lat": 1.3419083, "lng": 103.8379548, "place_id": "ChIJnZIxx0YX2jERbeMGdhEaPPA", "icon": "hospital"}}, {"type": "Feature", "geometry": {"type": "Point", "coordinates": [103.7153213, 1.3482591]}, "properties": {"name": "ADVENT DENTAL SURGERY PTE. LTD.", "formatted_address": "530A Jurong West Ave 1, #01-907, Singapore", "lat": 1.3482591, "lng": 103.7153213, "place_id": "ChIJOySZUMMP2jER-ePYvLbIfrw", "icon": "hospital"}}, {"type": "Feature", "geometry": {"type": "Point", "coordinates": [103.8356881, 1.3035359]}, "properties": {"name": "ADVENT ENDODONTICS INC PTE LTD", "formatted_address": "290 Orchard Rd, Singapore 238859", "lat": 1.3035359, "lng": 103.8356881, "place_id": "ChIJAQAAIJIZ2jERw0I1mh23R0s", "icon": "hospital"}}, {"type": "Feature", "geometry": {"type": "Point", "coordinates": [103.878139, 1.398289]}, "properties": {"name": "AE MEDICAL CLINIC", "formatted_address": "467B Fernvale Link, #01-529, Singapore 792467", "lat": 1.398289, "lng": 103.878139, "place_id": "ChIJISx5uHkW2jERnskNoJPMos4", "icon": "hospital"}}, {"type": "Feature", "geometry": {"type": "Point", "coordinates": [103.827649, 1.4264076]}, "properties": {"name": "AEGIS DIALYSIS CENTRE PTE LTD", "formatted_address": "716 Yishun Street 71, Singapore 760716", "lat": 1.4264076, "lng": 103.827649, "place_id": "ChIJAQCwNXEU2jERHbgtq2h5A20", "icon": "hospital"}}, {"type": "Feature", "geometry": {"type": "Point", "coordinates": [103.775949, 1.34256]}, "properties": {"name": "AELITE IMPLANT AND DENTAL CENTER", "formatted_address": "144 Upper Bukit Timah Rd, #01-05/06 Beauty World Centre, Singapore 588177", "lat": 1.34256, "lng": 103.775949, "place_id": "ChIJ5ZbacYoQ2jEREJABgQmP24M", "icon": "hospital"}}, {"type": "Feature", "geometry": {"type": "Point", "coordinates": [103.832045, 1.3066]}, "properties": {"name": "AEON MEDICAL AND AESTHETIC CENTRE", "formatted_address": "9 Scotts Road #06-02/03 Scotts Medical Centre, Pacific Plaza, Singapore 228210", "lat": 1.3066, "lng": 103.832045, "place_id": "ChIJ1x1Hao0Z2jERinxcPU2duRs", "icon": "hospital"}}, {"type": "Feature", "geometry": {"type": "Point", "coordinates": [103.838784, 1.301615]}, "properties": {"name": "AERAS MEDICAL AESTHETIC CLINIC", "formatted_address": "218 Orchard Rd, #05-01A Gateway @ Emerald, Singapore 238851", "lat": 1.301615, "lng": 103.838784, "place_id": "ChIJSQuDTl8Z2jERu6GdXJzNFSE", "icon": "hospital"}}, {"type": "Feature", "geometry": {"type": "Point", "coordinates": [103.8443689, 1.3206513]}, "properties": {"name": "AESTEEM AESTHETIC CLINIC", "formatted_address": "10 Sinaran Dr Novena Medical Centre #11-23, Singapore 307506", "lat": 1.3206513, "lng": 103.8443689, "place_id": "ChIJP6FlgvkZ2jERqpl4bFSzcFI", "icon": "hospital"}}, {"type": "Feature", "geometry": {"type": "Point", "coordinates": [103.852123, 1.283847]}, "properties": {"name": "AESTHETE SMILESTUDIO", "formatted_address": "24 Raffles Place, #02-04 Clifford Centre, Singapore 048621", "lat": 1.283847, "lng": 103.852123, "place_id": "ChIJRw4QyA4Z2jERFKUs_BcYqi8", "icon": "hospital"}}, {"type": "Feature", "geometry": {"type": "Point", "coordinates": [103.857306, 1.291414]}, "properties": {"name": "AESTHETIC & DENTAL SURGERY", "formatted_address": "6 Raffles Blvd, #B1-10 Marina Square, Singapore 039594", "lat": 1.291414, "lng": 103.857306, "place_id": "ChIJNb7uwU8Z2jERJz0meLpcSkQ", "icon": "hospital"}}, {"type": "Feature", "geometry": {"type": "Point", "coordinates": [103.833102, 1.303817]}, "properties": {"name": "AESTHETIC & MEDICAL CLINIC", "formatted_address": "435 Orchard Rd, #17-04 Wisma Atria, Singapore 238877", "lat": 1.303817, "lng": 103.833102, "place_id": "ChIJV1VVbZIZ2jERWOG34So_IoA", "icon": "hospital"}}, {"type": "Feature", "geometry": {"type": "Point", "coordinates": [103.8328933, 1.3038294]}, "properties": {"name": "AESTHETIC & MEDICAL CLINIC (DR JOSEPH YANG@ORCHARD)", "formatted_address": "435 Orchard Road, #17-04/05 Wisma Atria Office Tower, Singapore 238877", "lat": 1.3038294, "lng": 103.8328933, "place_id": "ChIJn3859o0Z2jERJJ3TifeyOzM", "icon": "hospital"}}, {"type": "Feature", "geometry": {"type": "Point", "coordinates": [103.8354059, 1.3051556]}, "properties": {"name": "AESTHETIC & RECONSTRUCTIVE CENTRE", "formatted_address": "3 Mount Elizabeth, #13-08, Singapore 228510", "lat": 1.3051556, "lng": 103.8354059, "place_id": "ChIJ59-ajAca2jERn2K5Bj3d0gM", "icon": "hospital"}}, {"type": "Feature", "geometry": {"type": "Point", "coordinates": [103.8490351, 1.2801129]}, "properties": {"name": "AESTHETIC DENTAL CARE", "formatted_address": "133 Cecil Street, #04-01 Keck Seng Tower, Singapore 069535", "lat": 1.2801129, "lng": 103.8490351, "place_id": "ChIJ5Zebkg0Z2jERsmAtFa0UozI", "icon": "hospital"}}, {"type": "Feature", "geometry": {"type": "Point", "coordinates": [103.835086, 1.304308]}, "properties": {"name": "AESTHETIC RECONSTRUCTIVE JAW SURGERY", "formatted_address": "3 Mount Elizabeth, #04-05 Mount Elizabeth Medical Centre, Singapore, 228510", "lat": 1.304308, "lng": 103.835086, "place_id": "ChIJEW8RUpIZ2jERdunVBW2lkY0", "icon": "hospital"}}, {"type": "Feature", "geometry": {"type": "Point", "coordinates": [103.9057849, 1.3013079]}, "properties": {"name": "AESTHETIC WORKS MEDICAL ASSOCIATES", "formatted_address": "80 Marine Parade Rd, #05-06/07, Singapore 449269", "lat": 1.3013079, "lng": 103.9057849, "place_id": "ChIJhwj4ynEY2jEReHVuZeNBppI", "icon": "hospital"}}, {"type": "Feature", "geometry": {"type": "Point", "coordinates": [103.8450226, 1.2892717]}, "properties": {"name": "AESTHETICS CENTRAL CLINIC", "formatted_address": "8 Eu Tong Sen St, #11-89 The Central, Singapore 059818", "lat": 1.2892717, "lng": 103.8450226, "place_id": "ChIJq0F5mwoZ2jERefNDAdXNKIw", "icon": "hospital"}}, {"type": "Feature", "geometry": {"type": "Point", "coordinates": [103.8401483, 1.2995812]}, "properties": {"name": "AESTHETICS DENTAL SURGERY", "formatted_address": "3 Killiney Road #09-01, House 1 Winsland, Singapore 239519", "lat": 1.2995812, "lng": 103.8401483, "place_id": "ChIJsz1jqaIZ2jERcKVUPdNj2HM", "icon": "hospital"}}, {"type": "Feature", "geometry": {"type": "Point", "coordinates": [103.8492747, 1.2860066]}, "properties": {"name": "AESTHETICS PLUS MEDICAL CLINIC", "formatted_address": "57 Circular Rd, #02-01, Singapore 049412", "lat": 1.2860066, "lng": 103.8492747, "place_id": "ChIJCY7GxwsZ2jERUDYfO4SQ6sQ", "icon": "hospital"}}, {"type": "Feature", "geometry": {"type": "Point", "coordinates": [103.7673951, 1.3863097]}, "properties": {"name": "AESTHETICS@HEALTHSPRINGS", "formatted_address": "524A Jelapang Rd, #02-01, Singapore 671524", "lat": 1.3863097, "lng": 103.7673951, "place_id": "ChIJF9AEVJgR2jERLjQgyHepE7I", "icon": "hospital"}}, {"type": "Feature", "geometry": {"type": "Point", "coordinates": [103.8708133, 1.3539873]}, "properties": {"name": "AFFINITY MEDICAL CLINIC", "formatted_address": "Serangoon Central Dr, #01-187 Blk 253, Singapore 550253", "lat": 1.3539873, "lng": 103.8708133, "place_id": "ChIJS-ujxkEX2jERgu9clfcvaKQ", "icon": "hospital"}}, {"type": "Feature", "geometry": {"type": "Point", "coordinates": [103.8440388, 1.322236]}, "properties": {"name": "AFFINITY SURGERY CENTRE", "formatted_address": "38 Irrawaddy Rd, Singapore 329563", "lat": 1.322236, "lng": 103.8440388, "place_id": "ChIJuXIgreAZ2jERRYNtlZEQhhA", "icon": "hospital"}}, {"type": "Feature", "geometry": {"type": "Point", "coordinates": [103.8378823, 1.3419413]}, "properties": {"name": "AFFINITY SURGERY CENTRE", "formatted_address": "820 Thomson Rd, Singapore 574623", "lat": 1.3419413, "lng": 103.8378823, "place_id": "ChIJ0yUHzEYX2jERjwP0e9XyUpk", "icon": "hospital"}}, {"type": "Feature", "geometry": {"type": "Point", "coordinates": [103.8190753, 1.403633]}, "properties": {"name": "AFFORD MEDICAL", "formatted_address": "25 Springside Green, Singapore", "lat": 1.403633, "lng": 103.8190753, "place_id": "ChIJXWwprP8T2jERCZPef4NF24o", "icon": "hospital"}}, {"type": "Feature", "geometry": {"type": "Point", "coordinates": [103.929698, 1.360488]}, "properties": {"name": "AFPD MEDICAL CLINIC", "formatted_address": "10 Tampines Industrial Ave 3, Singapore 528798", "lat": 1.360488, "lng": 103.929698, "place_id": "ChIJc2rfSHY92jERVUzAxzRNsMc", "icon": "hospital"}}, {"type": "Feature", "geometry": {"type": "Point", "coordinates": [103.8482924, 1.358057]}, "properties": {"name": "AGAPE CLINIC", "formatted_address": "222 Bishan Street 23, #B1-169, Singapore 570222", "lat": 1.358057, "lng": 103.8482924, "place_id": "ChIJnTr7GBkX2jERp9XuNwW9eq0", "icon": "hospital"}}, {"type": "Feature", "geometry": {"type": "Point", "coordinates": [103.8385115, 1.3417115]}, "properties": {"name": "AGAPE WOMEN'S SPECIALISTS", "formatted_address": "820 Thomson Road, #06-70, Mount Alvernia Medical Centre, Block D, Singapore 574623", "lat": 1.3417115, "lng": 103.8385115, "place_id": "ChIJhQ34u0YX2jERtfiomPUk7fo", "icon": "hospital"}}, {"type": "Feature", "geometry": {"type": "Point", "coordinates": [103.8364753, 1.3058917]}, "properties": {"name": "AGASTHIAN THORACIC SURGERY PTE LTD", "formatted_address": "Mount Elizabeth, #14-12, Singapore 228510", "lat": 1.3058917, "lng": 103.8364753, "place_id": "ChIJyxCwVZIZ2jEREMcAvLE5bYY", "icon": "hospital"}}, {"type": "Feature", "geometry": {"type": "Point", "coordinates": [103.8345467, 1.3042138]}, "properties": {"name": "AGE-LINK SPECIALIST CLINIC FOR OLDER PERSONS", "formatted_address": "3 Mt Elizabeth, #17-16, Mount Elizabeth, Medical Centre, Singapore 228510", "lat": 1.3042138, "lng": 103.8345467, "place_id": "ChIJEW8RUpIZ2jERN25-PNc84qw", "icon": "hospital"}}, {"type": "Feature", "geometry": {"type": "Point", "coordinates": [103.8440388, 1.322236]}, "properties": {"name": "AGE-LINK SPECIALIST CLINIC FOR OLDER PERSONS", "formatted_address": "38 Irrawaddy Rd, Singapore 329563", "lat": 1.322236, "lng": 103.8440388, "place_id": "ChIJuXIgreAZ2jERRYNtlZEQhhA", "icon": "hospital"}}, {"type": "Feature", "geometry": {"type": "Point", "coordinates": [103.828408, 1.306928]}, "properties": {"name": "AGELESS MEDICAL", "formatted_address": "501 Orchard Rd, #04-10 Wheelock Place, Singapore 238880", "lat": 1.306928, "lng": 103.828408, "place_id": "ChIJ08T-m4wZ2jERNJRqguhP4aI", "icon": "hospital"}}, {"type": "Feature", "geometry": {"type": "Point", "coordinates": [103.8442644, 1.3221797]}, "properties": {"name": "AGEWELL SENIORS CLINIC, AGEWELL ARTSZ MEDICAL GROUP PTE LTD", "formatted_address": "#10-31, Mount Elizabeth Novena Specialist Centre, 38 Irrawaddy Road, Singapore 329563", "lat": 1.3221797, "lng": 103.8442644, "place_id": "ChIJtRuEGmAX2jERN8jBQaEmk8s", "icon": "hospital"}}, {"type": "Feature", "geometry": {"type": "Point", "coordinates": [103.8436721, 1.3176007]}, "properties": {"name": "AGLOW BABY & CHILD SPECIALIST CLINIC", "formatted_address": "101 Thomson Rd, Singapore 307591", "lat": 1.3176007, "lng": 103.8436721, "place_id": "ChIJ-UlAEugZ2jERQQu3RtY3c6w", "icon": "hospital"}}, {"type": "Feature", "geometry": {"type": "Point", "coordinates": [103.8025177, 1.2847109]}, "properties": {"name": "AIA ALEXANDRA CLINIC", "formatted_address": "371 Alexandra Rd, Singapore 159963", "lat": 1.2847109, "lng": 103.8025177, "place_id": "ChIJ-0Mj2csb2jER2YHg1YHePEk", "icon": "hospital"}}, {"type": "Feature", "geometry": {"type": "Point", "coordinates": [103.8479744, 1.3357889]}, "properties": {"name": "AICARE FAMILY CLINIC", "formatted_address": "83 Lor 2 Toa Payoh, Block 83, Singapore 310083 Lor 2 Toa Payoh, Singapore 310083", "lat": 1.3357889, "lng": 103.8479744, "place_id": "ChIJHQdHKmYX2jER3xnp5trYUAE", "icon": "hospital"}}, {"type": "Feature", "geometry": {"type": "Point", "coordinates": [103.7856769, 1.2796828]}, "properties": {"name": "AJ WARREN DENTAL CLINIC", "formatted_address": "218 Pasir Panjang Rd, #02-11, Singapore 118579", "lat": 1.2796828, "lng": 103.7856769, "place_id": "ChIJ13gMy_sb2jERE-4AS3kwnI4", "icon": "hospital"}}, {"type": "Feature", "geometry": {"type": "Point", "coordinates": [103.8310002, 1.3061653]}, "properties": {"name": "ALAXIS MEDICAL & AESTHETIC SURGERY", "formatted_address": "360 Orchard Rd, #04-05 International Building, Singapore 238869", "lat": 1.3061653, "lng": 103.8310002, "place_id": "ChIJV1VVbZIZ2jER0XO_VVGWTM0", "icon": "hospital"}}, {"type": "Feature", "geometry": {"type": "Point", "coordinates": [103.8310002, 1.3061653]}, "properties": {"name": "ALAXIS MEDICAL & AESTHETIC SURGERY", "formatted_address": "360 Orchard Rd, #04-05 International Building, Singapore 238869", "lat": 1.3061653, "lng": 103.8310002, "place_id": "ChIJV1VVbZIZ2jER0XO_VVGWTM0", "icon": "hospital"}}, {"type": "Feature", "geometry": {"type": "Point", "coordinates": [103.7976002, 1.3008629]}, "properties": {"name": "ALDA DENTAL SURGERY", "formatted_address": "48 Tanglin Halt Rd, #01-337, Singapore 142048", "lat": 1.3008629, "lng": 103.7976002, "place_id": "ChIJqzajnEca2jERRO-ead5n01o", "icon": "hospital"}}, {"type": "Feature", "geometry": {"type": "Point", "coordinates": [103.945094, 1.318705]}, "properties": {"name": "ALDA DENTAL SURGERY(BEDOK)", "formatted_address": "158 Bedok South Ave 3, #01-589, Singapore 460158", "lat": 1.318705, "lng": 103.945094, "place_id": "ChIJI5aiHs8i2jERGFE_6_BaFYg", "icon": "hospital"}}, {"type": "Feature", "geometry": {"type": "Point", "coordinates": [103.835431, 1.30509]}, "properties": {"name": "ALEX FOK ENDOCRINE PRACTICE", "formatted_address": "3 Mount Elizabeth, #07-07 Medical Center, Singapore 228510", "lat": 1.30509, "lng": 103.835431, "place_id": "ChIJ60mxTpIZ2jERgE1XrdogWto", "icon": "hospital"}}, {"type": "Feature", "geometry": {"type": "Point", "coordinates": [103.8538971, 1.31256]}, "properties": {"name": "ALEX OOI & ASSOCIATES OBGYN CONSULTANTS", "formatted_address": "1 Farrer Park Station Road, #12-05 Farrer Park Medical Centre (Connexion), Singapore, Singapore 217562", "lat": 1.31256, "lng": 103.8538971, "place_id": "ChIJNengU5IZ2jERtKd84GprMYE", "icon": "hospital"}}, {"type": "Feature", "geometry": {"type": "Point", "coordinates": [103.8109599, 1.2927125]}, "properties": {"name": "ALEXANDRA FAMILY CLINIC & SURGERY", "formatted_address": "57 Dawson Rd, #02-02, Singapore 142057", "lat": 1.2927125, "lng": 103.8109599, "place_id": "ChIJiZI9ky0a2jERijIarTug2xQ", "icon": "hospital"}}, {"type": "Feature", "geometry": {"type": "Point", "coordinates": [103.8352893, 1.3045467]}, "properties": {"name": "ALEXIUS CHEE GASTROENTEROLOGY & MEDICAL CLINIC", "formatted_address": "3 Mount Elizabeth, #05-09 Medical Centre, Singapore 228510", "lat": 1.3045467, "lng": 103.8352893, "place_id": "ChIJ60mxTpIZ2jERqnw4lHyIj3I", "icon": "hospital"}}, {"type": "Feature", "geometry": {"type": "Point", "coordinates": [103.835499, 1.305425]}, "properties": {"name": "ALFRED CHENG CARDIAC CARE", "formatted_address": "3 Mount Elizabeth, Singapore 228510", "lat": 1.305425, "lng": 103.835499, "place_id": "ChIJuaCiV5IZ2jER9W4-_nE3W0Q", "icon": "hospital"}}, {"type": "Feature", "geometry": {"type": "Point", "coordinates": [103.8354392, 1.3050549]}, "properties": {"name": "ALFRED CHENG ORTHODONTIC CLINIC", "formatted_address": "3 Mount Elizabeth, #03-03 Medical Centre, Singapore 228510", "lat": 1.3050549, "lng": 103.8354392, "place_id": "ChIJEW8RUpIZ2jERhOPUtiW6flY", "icon": "hospital"}}, {"type": "Feature", "geometry": {"type": "Point", "coordinates": [103.8448034, 1.3008369]}, "properties": {"name": "ALIGN BRACES CLINIC", "formatted_address": "Plaza Singapura, 68 Orchard Rd, #04-33, Singapore 238839", "lat": 1.3008369, "lng": 103.8448034, "place_id": "ChIJW1IxQRUZ2jERSx9EQIupuZQ", "icon": "hospital"}}, {"type": "Feature", "geometry": {"type": "Point", "coordinates": [103.8381413, 1.3421271]}, "properties": {"name": "ALIVEOMEDICAL", "formatted_address": "820 Thomson Rd, Singapore 574623", "lat": 1.3421271, "lng": 103.8381413, "place_id": "ChIJ0yUHzEYX2jERdhzsbGxiLDY", "icon": "hospital"}}, {"type": "Feature", "geometry": {"type": "Point", "coordinates": [103.8354837, 1.3055915]}, "properties": {"name": "ALIVEOMEDICAL", "formatted_address": "3 Mount Elizabeth, Singapore 228510", "lat": 1.3055915, "lng": 103.8354837, "place_id": "ChIJnUpJWpIZ2jERhpsQCRE_2-M", "icon": "hospital"}}, {"type": "Feature", "geometry": {"type": "Point", "coordinates": [103.8440388, 1.322236]}, "properties": {"name": "ALIVEOMEDICAL", "formatted_address": "38 Irrawaddy Rd, Singapore 329563", "lat": 1.322236, "lng": 103.8440388, "place_id": "ChIJuXIgreAZ2jERRYNtlZEQhhA", "icon": "hospital"}}, {"type": "Feature", "geometry": {"type": "Point", "coordinates": [103.8865968, 1.3192325]}, "properties": {"name": "ALJUNIED DENTAL SURGERY PTE LTD", "formatted_address": "119 Aljunied Avenue 2, #01-70, Singapore 380119", "lat": 1.3192325, "lng": 103.8865968, "place_id": "ChIJz-oM7SMY2jERkJjjDXr4cMc", "icon": "hospital"}}, {"type": "Feature", "geometry": {"type": "Point", "coordinates": [103.831014, 1.306172]}, "properties": {"name": "ALL DERMA MEDICAL CLINIC", "formatted_address": "360 Orchard Road #05-06 International Building, Singapore, 238869", "lat": 1.306172, "lng": 103.831014, "place_id": "ChIJ5fGMDo0Z2jERV91hy8dJt-A", "icon": "hospital"}}, {"type": "Feature", "geometry": {"type": "Point", "coordinates": [103.8202015, 1.3076254]}, "properties": {"name": "ALLERGY, ARTHRITIS & RHEUMATISM CLINIC", "formatted_address": "6 Napier Rd, Singapore 258499", "lat": 1.3076254, "lng": 103.8202015, "place_id": "ChIJ1-H_JyAa2jERSqUQmVVeFVQ", "icon": "hospital"}}, {"type": "Feature", "geometry": {"type": "Point", "coordinates": [103.8543488, 1.3124251]}, "properties": {"name": "ALLERGY, ARTHRITIS & RHEUMATISM CLINIC", "formatted_address": "Singapore 217562", "lat": 1.3124251, "lng": 103.8543488, "place_id": "ChIJr57ad8YZ2jERAvlKobHmC5E", "icon": "hospital"}}, {"type": "Feature", "geometry": {"type": "Point", "coordinates": [103.9314969, 1.3549488]}, "properties": {"name": "ALLHEALTH FAMILY CLINIC", "formatted_address": "872C Tampines Street 86, #01-01, Singapore 523872", "lat": 1.3549488, "lng": 103.9314969, "place_id": "ChIJM2cQ93E92jERJa1cc6yHujY", "icon": "hospital"}}, {"type": "Feature", "geometry": {"type": "Point", "coordinates": [103.907596, 1.3326495]}, "properties": {"name": "ALLIANCE CLINIC AND PARTNERS PTE LTD", "formatted_address": "652 Jln Tenaga, #01-50, Singapore 410652", "lat": 1.3326495, "lng": 103.907596, "place_id": "ChIJUe4FkPsX2jERS3QgBmQFl30", "icon": "hospital"}}, {"type": "Feature", "geometry": {"type": "Point", "coordinates": [103.7181955, 1.3504465]}, "properties": {"name": "ALLSMILES DENTAL CARE PLUS", "formatted_address": "502 Jurong West Ave 1, #01-805, Singapore 640502", "lat": 1.3504465, "lng": 103.7181955, "place_id": "ChIJIwhzfpQP2jERwPXcg7QkdyY", "icon": "hospital"}}, {"type": "Feature", "geometry": {"type": "Point", "coordinates": [103.7181955, 1.3504465]}, "properties": {"name": "ALLSMILES DENTAL CARE PTE LTD", "formatted_address": "502 Jurong West Ave 1, #01-817, Singapore 640502", "lat": 1.3504465, "lng": 103.7181955, "place_id": "ChIJgxzhp9wP2jER6pRaNZvbPsc", "icon": "hospital"}}, {"type": "Feature", "geometry": {"type": "Point", "coordinates": [103.9061156, 1.4062111]}, "properties": {"name": "ALLSMILES DENTAL CARE PUNGGOL PTE. LTD.", "formatted_address": "310 Punggol Dr, block 681, Singapore 820681", "lat": 1.4062111, "lng": 103.9061156, "place_id": "ChIJc64RhPsV2jERrFou7EvV13s", "icon": "hospital"}}, {"type": "Feature", "geometry": {"type": "Point", "coordinates": [103.8324, 1.30405]}, "properties": {"name": "ALLURE PLASTIC SURGERY", "formatted_address": "435 Orchard Rd, #22-04 Wisma Atria, Singapore 238877", "lat": 1.30405, "lng": 103.8324, "place_id": "ChIJ9UqL940Z2jERVf_A9aEYvig", "icon": "hospital"}}, {"type": "Feature", "geometry": {"type": "Point", "coordinates": [103.7981937, 1.3000758]}, "properties": {"name": "ALLY HEALTH", "formatted_address": "Commonwealth Dr, #01-372 Blk 46-2, Singapore 140462", "lat": 1.3000758, "lng": 103.7981937, "place_id": "ChIJubepi0ca2jERAZi-WjwwayY", "icon": "hospital"}}, {"type": "Feature", "geometry": {"type": "Point", "coordinates": [103.8337132, 1.3071502]}, "properties": {"name": "ALOHA DENTAL PTE LTD", "formatted_address": "14 Scotts Rd, #04-125, Singapore 228213", "lat": 1.3071502, "lng": 103.8337132, "place_id": "ChIJL3MQpZIZ2jERDGu2w3BQQLs", "icon": "hospital"}}, {"type": "Feature", "geometry": {"type": "Point", "coordinates": [103.8470435, 1.2759916]}, "properties": {"name": "ALPHA DENTAL GROUP", "formatted_address": "8 Shenton Way, #01-19 AXA Building, Singapore 068811", "lat": 1.2759916, "lng": 103.8470435, "place_id": "ChIJbbEMnhMZ2jERxjraLVmRDgs", "icon": "hospital"}}, {"type": "Feature", "geometry": {"type": "Point", "coordinates": [103.8361743, 1.3043349]}, "properties": {"name": "ALPHA JOINTS & ORTHOPAEDICS PTE LTD", "formatted_address": "Paragon Medical Center #15-12, 290 Orchard Rd, Singapore 238859", "lat": 1.3043349, "lng": 103.8361743, "place_id": "ChIJWd-xDZ8Z2jERnI8fTCHNCL0", "icon": "hospital"}}, {"type": "Feature", "geometry": {"type": "Point", "coordinates": [103.8202012, 1.3076257]}, "properties": {"name": "ALPHA JOINTS & ORTHOPAEDICS PTE. LTD.", "formatted_address": "Gleneagles Medical Centre 6, #02-20 Napier Rd, Singapore 258499", "lat": 1.3076257, "lng": 103.8202012, "place_id": "ChIJWR3jJCAa2jERGernDwnUgAA", "icon": "hospital"}}, {"type": "Feature", "geometry": {"type": "Point", "coordinates": [103.8432372, 1.3206053]}, "properties": {"name": "ALPHA WOMEN'S SPECIALISTS", "formatted_address": "101 Irrawaddy Rd, #12-07/14 Royal Square At, Singapore 329565", "lat": 1.3206053, "lng": 103.8432372, "place_id": "ChIJ1RckTX8Z2jERsgMgN9cJN2E", "icon": "hospital"}}, {"type": "Feature", "geometry": {"type": "Point", "coordinates": [103.835289, 1.304546]}, "properties": {"name": "ALVIN HONG NEUROSURGERY", "formatted_address": "Mount Elizabeth Medical Centre #14-14, 3 Mount Elizabeth, Singapore 228510", "lat": 1.304546, "lng": 103.835289, "place_id": "ChIJuWj-GCAa2jER6du2ol56WAo", "icon": "hospital"}}, {"type": "Feature", "geometry": {"type": "Point", "coordinates": [103.8442712, 1.3222969]}, "properties": {"name": "AMANDELA ENT HEAD & NECK CENTRE", "formatted_address": "38 Irrawaddy Rd, #10-45/46/47, Singapore 329563", "lat": 1.3222969, "lng": 103.8442712, "place_id": "ChIJKzpd9t8Z2jEREOxn6I3Fna0", "icon": "hospital"}}, {"type": "Feature", "geometry": {"type": "Point", "coordinates": [103.8581127, 1.3025559]}, "properties": {"name": "AMARIS B CLINIC", "formatted_address": "140 Arab St, Singapore 199827", "lat": 1.3025559, "lng": 103.8581127, "place_id": "ChIJx5uPyLAZ2jERhykYrE6B8rY", "icon": "hospital"}}, {"type": "Feature", "geometry": {"type": "Point", "coordinates": [103.8441789, 1.3211212]}, "properties": {"name": "AMBULATORY SURGICARE (ASC)", "formatted_address": "10 Sinaran Dr, Singapore 307506", "lat": 1.3211212, "lng": 103.8441789, "place_id": "ChIJVVVVZecZ2jER4OuiwETKg8o", "icon": "hospital"}}, {"type": "Feature", "geometry": {"type": "Point", "coordinates": [103.8302879, 1.3049508]}, "properties": {"name": "AMDA INTERNATIONAL PEACE CLINIC", "formatted_address": "501 Orchard Rd, #05-01 Wheelock Place, Singapore 238880", "lat": 1.3049508, "lng": 103.8302879, "place_id": "ChIJsw56sY0Z2jERqbzoUzA3Gko", "icon": "hospital"}}, {"type": "Feature", "geometry": {"type": "Point", "coordinates": [103.844315, 1.320753]}, "properties": {"name": "AMERICAN INTERNATIONAL CLINIC PTE LTD", "formatted_address": "10 Sinaran Dr, Singapore 307506", "lat": 1.320753, "lng": 103.844315, "place_id": "ChIJdUi9XecZ2jERSbCQ1nv80Fc", "icon": "hospital"}}, {"type": "Feature", "geometry": {"type": "Point", "coordinates": [103.9335937, 1.3496921]}, "properties": {"name": "AMICAL DENTAL SURGERY", "formatted_address": "827 Tampines Street 81, Singapore 520827", "lat": 1.3496921, "lng": 103.9335937, "place_id": "ChIJ--SWDmw92jER44krvrYPz1E", "icon": "hospital"}}, {"type": "Feature", "geometry": {"type": "Point", "coordinates": [103.750946, 1.3596447]}, "properties": {"name": "AMITY MEDICAL CLINIC & DENTAL SURGERY", "formatted_address": "371 Bukit Batok Street 31, #01-314, Singapore 650371", "lat": 1.3596447, "lng": 103.750946, "place_id": "ChIJIff4EjYQ2jERS8qhFrCZ69A", "icon": "hospital"}}, {"type": "Feature", "geometry": {"type": "Point", "coordinates": [103.8464428, 1.3727024]}, "properties": {"name": "AMK CENTRAL DENTAL SURGERY", "formatted_address": "726 Ang Mo Kio Ave 6, Singapore 560726", "lat": 1.3727024, "lng": 103.8464428, "place_id": "ChIJ98DEwucW2jERc1T1m-QOA-0", "icon": "hospital"}}, {"type": "Feature", "geometry": {"type": "Point", "coordinates": [103.8469898, 1.3692729]}, "properties": {"name": "AMK FAMILY CLINIC PTE LTD", "formatted_address": "51 Ang Mo Kio Ave 3, #01-01 51, @ 569922", "lat": 1.3692729, "lng": 103.8469898, "place_id": "ChIJFx0aKOcW2jERMjq2KwXy4Ew", "icon": "hospital"}}, {"type": "Feature", "geometry": {"type": "Point", "coordinates": [103.847305, 1.3724019]}, "properties": {"name": "AMK SPECIALIST CENTRE", "formatted_address": "723 Ang Mo Kio Ave 8, Singapore 560723", "lat": 1.3724019, "lng": 103.847305, "place_id": "ChIJj3aM6kcX2jERmEqdsLBPWf0", "icon": "hospital"}}, {"type": "Feature", "geometry": {"type": "Point", "coordinates": [103.8470753, 1.2806446]}, "properties": {"name": "AMOY STREET DENTAL", "formatted_address": "40 Amoy St, Singapore 069866", "lat": 1.2806446, "lng": 103.8470753, "place_id": "ChIJtRcIcg0Z2jER_7IhjPjgDvc", "icon": "hospital"}}, {"type": "Feature", "geometry": {"type": "Point", "coordinates": [103.8461183, 1.3386273]}, "properties": {"name": "AMPM FAMILY CLINIC & SURGERY PTE. LTD.", "formatted_address": "123 Lor 1 Toa Payoh, Singapore 310123", "lat": 1.3386273, "lng": 103.8461183, "place_id": "ChIJw6kAz2kX2jERB-DqHg6P0DA", "icon": "hospital"}}, {"type": "Feature", "geometry": {"type": "Point", "coordinates": [103.8310537, 1.3061076]}, "properties": {"name": "AN DENTAL", "formatted_address": "360 Orchard Road, #05-05 International Building, Singapore 238869", "lat": 1.3061076, "lng": 103.8310537, "place_id": "ChIJ_7XvBpgZ2jERxc1ZMPGamtE", "icon": "hospital"}}, {"type": "Feature", "geometry": {"type": "Point", "coordinates": [103.8202196, 1.3073629]}, "properties": {"name": "ANAESTHESIA & ANALGESIA PAIN MANAGEMENT CENTRE", "formatted_address": "6A Napier Rd, Singapore 258500", "lat": 1.3073629, "lng": 103.8202196, "place_id": "ChIJWXTRJCAa2jERXNBB0kxTWSU", "icon": "hospital"}}, {"type": "Feature", "geometry": {"type": "Point", "coordinates": [103.8355849, 1.3039311]}, "properties": {"name": "ANDERS DEVELOPMENTAL CLINIC", "formatted_address": "290 Orchard Rd, Singapore 238859", "lat": 1.3039311, "lng": 103.8355849, "place_id": "ChIJVVVVMJIZ2jERONaMWHgz0VY", "icon": "hospital"}}, {"type": "Feature", "geometry": {"type": "Point", "coordinates": [103.8448659, 1.3586114]}, "properties": {"name": "ANDERSON MEDICAL CENTRE", "formatted_address": "283 Bishan Street 22, #01-173, Singapore 570283", "lat": 1.3586114, "lng": 103.8448659, "place_id": "ChIJZ1E6ASIX2jERz0R31pE4Zy8", "icon": "hospital"}}, {"type": "Feature", "geometry": {"type": "Point", "coordinates": [103.843098, 1.3205847]}, "properties": {"name": "ANDREA'S DIGESTIVE, COLON, LIVER AND GALLBLADDER CLINIC PTE LTD", "formatted_address": "#21-11/12 Royal Square at Novena, 101 Irrawaddy Rd, Singapore 329565", "lat": 1.3205847, "lng": 103.843098, "place_id": "ChIJM8xHApMZ2jEReuVmYAh-xLs", "icon": "hospital"}}, {"type": "Feature", "geometry": {"type": "Point", "coordinates": [103.8202196, 1.3073629]}, "properties": {"name": "ANDREW LEE BREAST CLINIC", "formatted_address": "6A Napier Rd, Singapore 258500", "lat": 1.3073629, "lng": 103.8202196, "place_id": "ChIJWXTRJCAa2jERXNBB0kxTWSU", "icon": "hospital"}}, {"type": "Feature", "geometry": {"type": "Point", "coordinates": [103.82035, 1.30752]}, "properties": {"name": "ANDREW SEE SURGERY HEAD & NECK, THYROID AND GENERAL SURGERY", "formatted_address": "6 Napier Rd, Singapore 258499", "lat": 1.30752, "lng": 103.82035, "place_id": "ChIJuWj-GCAa2jERp0paNAiJh-4", "icon": "hospital"}}, {"type": "Feature", "geometry": {"type": "Point", "coordinates": [103.81965, 1.307455]}, "properties": {"name": "ANDROLOGY, UROLOGY & CONTINENCE CENTRE", "formatted_address": "Annexe Block 6A, Napier Road, #05-36, Gleneagles Hospital, Singapore 258500", "lat": 1.307455, "lng": 103.81965, "place_id": "ChIJU97jJCAa2jERgAKlTpVO7CY", "icon": "hospital"}}, {"type": "Feature", "geometry": {"type": "Point", "coordinates": [103.8432372, 1.3206053]}, "properties": {"name": "ANEW AEROMEDICAL N EMOTIONAL WELLNESS CENTRE", "formatted_address": "101, 21-03 Irrawaddy Rd, Singapore 329565", "lat": 1.3206053, "lng": 103.8432372, "place_id": "ChIJpzcSFecZ2jERk86PLqxqaRI", "icon": "hospital"}}, {"type": "Feature", "geometry": {"type": "Point", "coordinates": [103.8339297, 1.304565]}, "properties": {"name": "ANG DENTAL SURGERY", "formatted_address": "304 Orchard Rd, #06-34/35 Lucky Plaza, Singapore 467589", "lat": 1.304565, "lng": 103.8339297, "place_id": "ChIJy9Fn0Mci2jERk1pCokkRcjg", "icon": "hospital"}}, {"type": "Feature", "geometry": {"type": "Point", "coordinates": [103.8402684, 1.3839686]}, "properties": {"name": "ANG MO KIO - THYE HUA KWAN HOSPITAL DIALYSIS CENTRE", "formatted_address": "17 Ang Mo Kio Ave 9, Singapore 569766", "lat": 1.3839686, "lng": 103.8402684, "place_id": "ChIJdeglPr8W2jERxZe-u-hFSqc", "icon": "hospital"}}, {"type": "Feature", "geometry": {"type": "Point", "coordinates": [103.8544582, 1.3728057]}, "properties": {"name": "ANG MO KIO 10 DENTAL", "formatted_address": "527 Ang Mo Kio Ave 10, Singapore 560527", "lat": 1.3728057, "lng": 103.8544582, "place_id": "ChIJc0Fxb-UW2jERUtUJQipPfns", "icon": "hospital"}}, {"type": "Feature", "geometry": {"type": "Point", "coordinates": [103.839382, 1.37526]}, "properties": {"name": "ANG MO KIO DENTAL SURGERY", "formatted_address": "157 Ang Mo Kio Ave 4, Singapore 560157", "lat": 1.37526, "lng": 103.839382, "place_id": "ChIJyWk5cMMW2jERMrAB4wKUFM8", "icon": "hospital"}}, {"type": "Feature", "geometry": {"type": "Point", "coordinates": [103.848077, 1.372617]}, "properties": {"name": "ANG MO KIO FAMILY MEDICINE CLINIC", "formatted_address": "4190 Ang Mo Kio Ave 6, #03-01 Broadway Plaza, Singapore 569841", "lat": 1.372617, "lng": 103.848077, "place_id": "ChIJ7VF9MeYW2jER6G15kLhhCfA", "icon": "hospital"}}, {"type": "Feature", "geometry": {"type": "Point", "coordinates": [103.839665, 1.375193]}, "properties": {"name": "ANG MO KIO MEDICAL CENTRE", "formatted_address": "157 Ang Mo Kio Ave 4, Singapore 560157", "lat": 1.375193, "lng": 103.839665, "place_id": "ChIJmc5bJ9sW2jER1PnoG9mxviU", "icon": "hospital"}}, {"type": "Feature", "geometry": {"type": "Point", "coordinates": [103.837625, 1.341499]}, "properties": {"name": "ANG SKIN & HAIR CLINIC", "formatted_address": "820 Thomson Road #06-51,Block D, Mt Alvernia Medical Centre, Singapore 574623", "lat": 1.341499, "lng": 103.837625, "place_id": "ChIJ0yUHzEYX2jERIpQmdO24WrE", "icon": "hospital"}}, {"type": "Feature", "geometry": {"type": "Point", "coordinates": [103.8361592, 1.3042151]}, "properties": {"name": "ANG YONG GUAN PSYCHIATRY", "formatted_address": "290 Orchard Rd, #11-09 Paragon, Singapore 238859", "lat": 1.3042151, "lng": 103.8361592, "place_id": "ChIJl_sOMpIZ2jERbLCfce0K4rY", "icon": "hospital"}}, {"type": "Feature", "geometry": {"type": "Point", "coordinates": [103.7740048, 1.4309822]}, "properties": {"name": "ANGELIN'S BABY & CHILD CLINIC", "formatted_address": "303 Woodlands Street 31, Singapore 730303", "lat": 1.4309822, "lng": 103.7740048, "place_id": "ChIJg4-3olIS2jERtMS2TMRm4hg", "icon": "hospital"}}, {"type": "Feature", "geometry": {"type": "Point", "coordinates": [103.8202196, 1.3073629]}, "properties": {"name": "ANGELINE YONG DERMATOLOGY", "formatted_address": "6A Napier Rd, Singapore 258500", "lat": 1.3073629, "lng": 103.8202196, "place_id": "ChIJWXTRJCAa2jERXNBB0kxTWSU", "icon": "hospital"}}, {"type": "Feature", "geometry": {"type": "Point", "coordinates": [103.8407122, 1.3804443]}, "properties": {"name": "ANGELSMILE DENTAL CENTRE", "formatted_address": "Singapore", "lat": 1.3804443, "lng": 103.8407122, "place_id": "ChIJ-dLk4cAW2jERA-ZrAsonBSg", "icon": "hospital"}}, {"type": "Feature", "geometry": {"type": "Point", "coordinates": [103.9598971, 1.3539904]}, "properties": {"name": "ANN ARBOR DENTAL SURGERY PTE LTD", "formatted_address": "5, #02-06 Tampines Street 32, Singapore 529284", "lat": 1.3539904, "lng": 103.9598971, "place_id": "ChIJk8wcsgI92jERpeeQTpFiD14", "icon": "hospital"}}, {"type": "Feature", "geometry": {"type": "Point", "coordinates": [103.73927, 1.3393001]}, "properties": {"name": "ANNE'S BABY AND CHILD CLINIC", "formatted_address": "214 Jurong East Street 21, #01-433 Block 214, Singapore 600214", "lat": 1.3393001, "lng": 103.73927, "place_id": "ChIJyST1XRoQ2jER9gH9YdpegwU", "icon": "hospital"}}, {"type": "Feature", "geometry": {"type": "Point", "coordinates": [103.945616, 1.345799]}, "properties": {"name": "ANSAR CLINIC", "formatted_address": "BLK #01-126 521138, 138 Tampines Street 11, Singapore 521138", "lat": 1.345799, "lng": 103.945616, "place_id": "ChIJp26ARxY92jERs0dJYfCBM1c", "icon": "hospital"}}, {"type": "Feature", "geometry": {"type": "Point", "coordinates": [103.883347, 1.315918]}, "properties": {"name": "ANSARI FAMILY CLINIC & SURGERY", "formatted_address": "78 Lor 25A Geylang, Singapore 388257", "lat": 1.315918, "lng": 103.883347, "place_id": "ChIJAQAAMDsY2jEReidYKQRLoU4", "icon": "hospital"}}, {"type": "Feature", "geometry": {"type": "Point", "coordinates": [103.83586, 1.304391]}, "properties": {"name": "ANSON INTERNATIONAL PAEDIATRIC & CHILD DEVELOPMENT CLINIC", "formatted_address": "290 Orchard Rd, Singapore 238859", "lat": 1.304391, "lng": 103.83586, "place_id": "ChIJl_sOMpIZ2jERgUQSMrmSZ9w", "icon": "hospital"}}, {"type": "Feature", "geometry": {"type": "Point", "coordinates": [103.882472, 1.3129317]}, "properties": {"name": "ANTEH DISPENSARY PTE LTD", "formatted_address": "1 Lor 22 Geylang, #01-02 Grandview Suites, Singapore 398664", "lat": 1.3129317, "lng": 103.882472, "place_id": "ChIJ_____zoY2jERffTihxPgrEc", "icon": "hospital"}}, {"type": "Feature", "geometry": {"type": "Point", "coordinates": [103.8200865, 1.3077263]}, "properties": {"name": "ANTHONY HENG SURGERY", "formatted_address": "Gleneagles Medical Centre #05-02, 6 Napier Road (S)258499, Singapore 258500", "lat": 1.3077263, "lng": 103.8200865, "place_id": "ChIJvY5xIiAa2jERal2G4i3MYx4", "icon": "hospital"}}, {"type": "Feature", "geometry": {"type": "Point", "coordinates": [103.8961203, 1.3682522]}, "properties": {"name": "ANTHONY'S BABY & CHILD CLINIC", "formatted_address": "327 Hougang Ave 5, Singapore 530327", "lat": 1.3682522, "lng": 103.8961203, "place_id": "ChIJE-AGHTQW2jER-02AwSX1RVo", "icon": "hospital"}}, {"type": "Feature", "geometry": {"type": "Point", "coordinates": [103.8432372, 1.3206053]}, "properties": {"name": "AOMF SURGERY ORAL MAXILLO-FACIAL SURGERY & DENTAL IMPLANTS", "formatted_address": "101 Irrawaddy Rd, #10-09 Royal Square At Novena, Singapore 329565", "lat": 1.3206053, "lng": 103.8432372, "place_id": "ChIJ9cI5SaQZ2jER4gywyQtmpVU", "icon": "hospital"}}, {"type": "Feature", "geometry": {"type": "Point", "coordinates": [103.8304088, 1.3047393]}, "properties": {"name": "AOMS JAPANESE DENTAL", "formatted_address": "501 Orchard Rd, 04-09, Singapore 238880", "lat": 1.3047393, "lng": 103.8304088, "place_id": "ChIJjThptI0Z2jERSy_r-97-eIw", "icon": "hospital"}}, {"type": "Feature", "geometry": {"type": "Point", "coordinates": [103.8445255, 1.321846]}, "properties": {"name": "AP CENTRE FOR JOINT RECONSTRUCTION", "formatted_address": "38 Irrawaddy Road, Mount Elizabeth Novena Specialist Centre, #10-50, Singapore 329563", "lat": 1.321846, "lng": 103.8445255, "place_id": "ChIJkxQZrOAZ2jERwLq1PlI-dS0", "icon": "hospital"}}, {"type": "Feature", "geometry": {"type": "Point", "coordinates": [103.7602431, 1.3803216]}, "properties": {"name": "APAX MEDICAL & AESTHETICS CLINIC", "formatted_address": "1 Woodlands Road #02-11 Junction 10, Singapore 677899", "lat": 1.3803216, "lng": 103.7602431, "place_id": "ChIJDbqvWrwR2jERHElHRfaixWQ", "icon": "hospital"}}, {"type": "Feature", "geometry": {"type": "Point", "coordinates": [103.7602431, 1.3803216]}, "properties": {"name": "APAX MEDICAL & AESTHETICS CLINIC", "formatted_address": "1 Woodlands Road #02-11 Junction 10, Singapore 677899", "lat": 1.3803216, "lng": 103.7602431, "place_id": "ChIJDbqvWrwR2jERHElHRfaixWQ", "icon": "hospital"}}, {"type": "Feature", "geometry": {"type": "Point", "coordinates": [103.8350761, 1.4154318]}, "properties": {"name": "APEX CLINIC & SURGERY", "formatted_address": "844 Yishun Street 81, Singapore 760844", "lat": 1.4154318, "lng": 103.8350761, "place_id": "ChIJXUTTjhEU2jERQha4BXoGirM", "icon": "hospital"}}, {"type": "Feature", "geometry": {"type": "Point", "coordinates": [103.7748213, 1.4301936]}, "properties": {"name": "APEX CLINIC & SURGERY", "formatted_address": "306 Woodlands Street 31, Singapore 730306", "lat": 1.4301936, "lng": 103.7748213, "place_id": "ChIJ____p1IS2jERFTqHJaIA9AY", "icon": "hospital"}}, {"type": "Feature", "geometry": {"type": "Point", "coordinates": [103.8414053, 1.3799619]}, "properties": {"name": "APEX DENTAL SURGERY PTE LTD", "formatted_address": "632 Ang Mo Kio Ave 4, Singapore 560632", "lat": 1.3799619, "lng": 103.8414053, "place_id": "ChIJU5O5GsEW2jEREA1TPE3S7rI", "icon": "hospital"}}, {"type": "Feature", "geometry": {"type": "Point", "coordinates": [103.8202196, 1.3073629]}, "properties": {"name": "APEX HEART CLINIC", "formatted_address": "6A Napier Rd, Singapore 258500", "lat": 1.3073629, "lng": 103.8202196, "place_id": "ChIJWXTRJCAa2jERXNBB0kxTWSU", "icon": "hospital"}}, {"type": "Feature", "geometry": {"type": "Point", "coordinates": [103.6914075, 1.341362]}, "properties": {"name": "APEX MEDICAL CENTRE (JURONG) PTE LTD", "formatted_address": "960 Jurong West Street 92, #01-172, Singapore 640960", "lat": 1.341362, "lng": 103.6914075, "place_id": "ChIJRz0LZJkP2jERN4tYjdD88WQ", "icon": "hospital"}}, {"type": "Feature", "geometry": {"type": "Point", "coordinates": [103.8545514, 1.3127631]}, "properties": {"name": "APICARE PAIN CLINIC", "formatted_address": "1 Farrer Park Station Rd, #15-05 Connexion, Singapore 217562", "lat": 1.3127631, "lng": 103.8545514, "place_id": "ChIJHTEYesYZ2jERLJfRlB3M-Us", "icon": "hospital"}}, {"type": "Feature", "geometry": {"type": "Point", "coordinates": [103.851427, 1.3076773]}, "properties": {"name": "APOLLO MEDICAL CENTRE", "formatted_address": "668 Chander Rd, Singapore 210668", "lat": 1.3076773, "lng": 103.851427, "place_id": "ChIJP3_cqbgZ2jERvqll4jbwJf8", "icon": "hospital"}}, {"type": "Feature", "geometry": {"type": "Point", "coordinates": [103.842667, 1.275726]}, "properties": {"name": "APOLLONIA DENTAL SURGERY", "formatted_address": "Block 1 Tanjong Pagar Plaza #02-35 Singapore 082001, Singapore", "lat": 1.275726, "lng": 103.842667, "place_id": "ChIJFdH6m2wZ2jERWfQW9-D453s", "icon": "hospital"}}, {"type": "Feature", "geometry": {"type": "Point", "coordinates": [103.930623, 1.328462]}, "properties": {"name": "APPLE DENTAL CLINIC", "formatted_address": "416 Bedok North Ave 2, #01-23, Singapore 460416", "lat": 1.328462, "lng": 103.930623, "place_id": "ChIJU5w_O0s92jERYWqt2oosnwc", "icon": "hospital"}}, {"type": "Feature", "geometry": {"type": "Point", "coordinates": [103.836086, 1.304246]}, "properties": {"name": "APPLE EAR NOSE THROAT SINUS AND  SNORING CENTRE", "formatted_address": "#11-03 Paragon Medical Suites, 290 Orchard Rd, Singapore 238859", "lat": 1.304246, "lng": 103.836086, "place_id": "ChIJVVVVMJIZ2jERIeXUnQTZTik", "icon": "hospital"}}, {"type": "Feature", "geometry": {"type": "Point", "coordinates": [103.8357461, 1.3036946]}, "properties": {"name": "APPLE EYE CENTRE", "formatted_address": "290 Orchard Rd, Singapore 238859", "lat": 1.3036946, "lng": 103.8357461, "place_id": "ChIJl_sOMpIZ2jERHjwb772YP64", "icon": "hospital"}}, {"type": "Feature", "geometry": {"type": "Point", "coordinates": [103.8448037, 1.3891805]}, "properties": {"name": "APPLE WELLNESS CENTER", "formatted_address": "7 Ang Mo Kio Street 64, Singapore 569086", "lat": 1.3891805, "lng": 103.8448037, "place_id": "ChIJuX0Mib0W2jER5HE2H3nseZE", "icon": "hospital"}}, {"type": "Feature", "geometry": {"type": "Point", "coordinates": [103.7885697, 1.2984458]}, "properties": {"name": "APPLE WELLNESS CENTER DENTAL SERVICES", "formatted_address": "2 Fusionopolis Way, Singapore 138634", "lat": 1.2984458, "lng": 103.7885697, "place_id": "ChIJjVlzjE8a2jERR8yDaWS5EQA", "icon": "hospital"}}, {"type": "Feature", "geometry": {"type": "Point", "coordinates": [103.8448037, 1.3891805]}, "properties": {"name": "APPLE WELLNESS CENTER DENTAL SERVICES", "formatted_address": "7 Ang Mo Kio Street 64, Singapore 569086", "lat": 1.3891805, "lng": 103.8448037, "place_id": "ChIJuX0Mib0W2jER5HE2H3nseZE", "icon": "hospital"}}, {"type": "Feature", "geometry": {"type": "Point", "coordinates": [103.7885697, 1.2984458]}, "properties": {"name": "APPLE WELLNESS CENTER MEDICAL SERVICES", "formatted_address": "2 Fusionopolis Way, Singapore 138634", "lat": 1.2984458, "lng": 103.7885697, "place_id": "ChIJjVlzjE8a2jERR8yDaWS5EQA", "icon": "hospital"}}, {"type": "Feature", "geometry": {"type": "Point", "coordinates": [103.835296, 1.303748]}, "properties": {"name": "APTUS SURGERY CENTRE", "formatted_address": "290 Orchard Road #07-16, Paragon Tower 2 Lobby C, Singapore 238859", "lat": 1.303748, "lng": 103.835296, "place_id": "ChIJJcM1JZIZ2jERTTWFviitTRA", "icon": "hospital"}}, {"type": "Feature", "geometry": {"type": "Point", "coordinates": [103.8478429, 1.2781678]}, "properties": {"name": "AQUILA MEDICAL", "formatted_address": "160 Robinson Rd, #06-01 SBF Center, Singapore 068914", "lat": 1.2781678, "lng": 103.8478429, "place_id": "ChIJ_____2oZ2jERykbKQp3Jjhw", "icon": "hospital"}}, {"type": "Feature", "geometry": {"type": "Point", "coordinates": [103.7514111, 1.358678]}, "properties": {"name": "AR-RAUDHAH MEDICAL CLINIC AND SURGERY PTE LTD", "formatted_address": "372 Bukit Batok Street 31, #01-386, Singapore 650372", "lat": 1.358678, "lng": 103.7514111, "place_id": "ChIJWSwxFzYQ2jERcDY_nn7DVyo", "icon": "hospital"}}, {"type": "Feature", "geometry": {"type": "Point", "coordinates": [103.853791, 1.312793]}, "properties": {"name": "ARCA(FARRER PARK) DIALYSIS PTE LTD", "formatted_address": "1 Farrer Park Station Road, #10-01/02, Farrer Park Medical Centre,, Connexion,, Singapore 217562", "lat": 1.312793, "lng": 103.853791, "place_id": "ChIJyQXr08UZ2jERuCr2LJBgmJE", "icon": "hospital"}}, {"type": "Feature", "geometry": {"type": "Point", "coordinates": [103.7791809, 1.320525]}, "properties": {"name": "ARCADIA CLINIC", "formatted_address": "2 Pandan Valley, #01-211, Singapore 597626", "lat": 1.320525, "lng": 103.7791809, "place_id": "ChIJabmqUXwa2jERBUii-vz1R3o", "icon": "hospital"}}, {"type": "Feature", "geometry": {"type": "Point", "coordinates": [103.8440388, 1.322236]}, "properties": {"name": "ARDEN CARDIO METABOLIC CLINIC", "formatted_address": "38 Irrawaddy Rd, Singapore 329563", "lat": 1.322236, "lng": 103.8440388, "place_id": "ChIJuXIgreAZ2jERRYNtlZEQhhA", "icon": "hospital"}}, {"type": "Feature", "geometry": {"type": "Point", "coordinates": [103.8440535, 1.3218192]}, "properties": {"name": "ARDEN ENDOCRINOLOGY SPECIALIST CLINIC PTE LTD", "formatted_address": "38 Irrawaddy Road, 09-45/46, Singapore 329563", "lat": 1.3218192, "lng": 103.8440535, "place_id": "ChIJASfoq-AZ2jERelaZ21nbQV8", "icon": "hospital"}}, {"type": "Feature", "geometry": {"type": "Point", "coordinates": [103.8440388, 1.322236]}, "properties": {"name": "ARDEN-JR SURGERY PTE LTD", "formatted_address": "38 Irrawaddy Rd, Singapore 329563", "lat": 1.322236, "lng": 103.8440388, "place_id": "ChIJkdA_rOAZ2jER-PvUGoPx_k4", "icon": "hospital"}}, {"type": "Feature", "geometry": {"type": "Point", "coordinates": [103.8441789, 1.3211212]}, "properties": {"name": "ARDMORE AESTHETIC CLINIC", "formatted_address": "10 Sinaran Dr, Singapore 307506", "lat": 1.3211212, "lng": 103.8441789, "place_id": "ChIJVVVVZecZ2jER4OuiwETKg8o", "icon": "hospital"}}, {"type": "Feature", "geometry": {"type": "Point", "coordinates": [103.8354837, 1.3055915]}, "properties": {"name": "ARDMORE ORTHOPAEDIC CLINIC", "formatted_address": "3 Mount Elizabeth, #14-13 Medical Centre, Singapore 228510", "lat": 1.3055915, "lng": 103.8354837, "place_id": "ChIJfbbAIyAa2jERPI7I2oXb9jU", "icon": "hospital"}}, {"type": "Feature", "geometry": {"type": "Point", "coordinates": [103.8545562, 1.3127619]}, "properties": {"name": "ARDMORE ORTHOPAEDIC CLINIC", "formatted_address": "1, #15-05 Farrer Park Station Rd, Connexion, Singapore 217562", "lat": 1.3127619, "lng": 103.8545562, "place_id": "ChIJkxhed8YZ2jERCfDdUiRm2dw", "icon": "hospital"}}, {"type": "Feature", "geometry": {"type": "Point", "coordinates": [103.784324, 1.333442]}, "properties": {"name": "ARIS MEDICAL CLINIC", "formatted_address": "989 Bukit Timah Rd, Singapore 589629", "lat": 1.333442, "lng": 103.784324, "place_id": "ChIJl0go-oQQ2jERFxI5kA5e2PA", "icon": "hospital"}}, {"type": "Feature", "geometry": {"type": "Point", "coordinates": [103.8441789, 1.3211212]}, "properties": {"name": "ARK MEDICAL CENTRE", "formatted_address": "10 Sinaran Dr, Singapore 307506", "lat": 1.3211212, "lng": 103.8441789, "place_id": "ChIJVVVVZecZ2jER4OuiwETKg8o", "icon": "hospital"}}, {"type": "Feature", "geometry": {"type": "Point", "coordinates": [103.82035, 1.30752]}, "properties": {"name": "ARTHUR TAN HEART CLINIC", "formatted_address": "6 Napier Rd, Singapore 258499", "lat": 1.30752, "lng": 103.82035, "place_id": "ChIJvY5xIiAa2jERi6X3ZIz0OfY", "icon": "hospital"}}, {"type": "Feature", "geometry": {"type": "Point", "coordinates": [103.819964, 1.306954]}, "properties": {"name": "ARTHUR TSENG WOMEN'S HEALTH SERVICES", "formatted_address": "6 Napier Rd, #09-19 Gleneagles Medical Centre, Singapore 258499", "lat": 1.306954, "lng": 103.819964, "place_id": "ChIJnV36PiAa2jERPTMO1cZvH2g", "icon": "hospital"}}, {"type": "Feature", "geometry": {"type": "Point", "coordinates": [103.8202012, 1.3076257]}, "properties": {"name": "ASC CLINIC FOR WOMEN", "formatted_address": "6 Napier Rd, #05-04 Gleneagles Medical Centre, Singapore 258499", "lat": 1.3076257, "lng": 103.8202012, "place_id": "ChIJjdZkF3kb2jERd9aFjHL0c9Q", "icon": "hospital"}}, {"type": "Feature", "geometry": {"type": "Point", "coordinates": [103.742123, 1.339963]}, "properties": {"name": "ASCENSION DENTAL CLINIC PTE. LTD", "formatted_address": "235 Jurong East Street 21, Singapore 600235", "lat": 1.339963, "lng": 103.742123, "place_id": "ChIJLYlg6hAQ2jEROgR2BrvA1Uk", "icon": "hospital"}}, {"type": "Feature", "geometry": {"type": "Point", "coordinates": [103.8379548, 1.3419083]}, "properties": {"name": "ASCENSION HEART CENTRE", "formatted_address": "820 Thomson Road #07-60 Mount Alvernia Medical Centre D, Singapore 574623", "lat": 1.3419083, "lng": 103.8379548, "place_id": "ChIJwblUdscX2jERhYXYCPTecf4", "icon": "hospital"}}, {"type": "Feature", "geometry": {"type": "Point", "coordinates": [103.8542173, 1.3130812]}, "properties": {"name": "ASCENSION HEART CENTRE", "formatted_address": "1, #02-01 Farrer Park Station Rd, Connexion, Singapore 217562", "lat": 1.3130812, "lng": 103.8542173, "place_id": "ChIJbzle2sUZ2jER5HGYEL6_X1c", "icon": "hospital"}}, {"type": "Feature", "geometry": {"type": "Point", "coordinates": [103.7748102, 1.3422037]}, "properties": {"name": "ASCENT DENTAL SURGEONS", "formatted_address": "15 Yuk Tong Ave, Singapore 596320", "lat": 1.3422037, "lng": 103.7748102, "place_id": "ChIJ4Yjb3GEQ2jERD-55Zc56pUM", "icon": "hospital"}}, {"type": "Feature", "geometry": {"type": "Point", "coordinates": [103.8378823, 1.3419413]}, "properties": {"name": "ASCENT EAR NOSE THROAT SG ALVERNIA", "formatted_address": "820 Thomson Rd, Singapore 574623", "lat": 1.3419413, "lng": 103.8378823, "place_id": "ChIJ0yUHzEYX2jERjwP0e9XyUpk", "icon": "hospital"}}, {"type": "Feature", "geometry": {"type": "Point", "coordinates": [103.9090302, 1.3151919]}, "properties": {"name": "ASCENT EAR NOSE THROAT SG EAST", "formatted_address": "319 Joo Chiat Pl, Singapore 427989", "lat": 1.3151919, "lng": 103.9090302, "place_id": "ChIJAQAAMA8Y2jERxOqy4KOEWEU", "icon": "hospital"}}, {"type": "Feature", "geometry": {"type": "Point", "coordinates": [103.835289, 1.304546]}, "properties": {"name": "ASCENT EAR NOSE THROAT SPECIALIST GROUP", "formatted_address": "3 Mount Elizabeth, Mount Elizabeth Medical Centre, #09-03, Singapore 228510", "lat": 1.304546, "lng": 103.835289, "place_id": "ChIJFWsY_mQa2jERFkjEOmz__es", "icon": "hospital"}}, {"type": "Feature", "geometry": {"type": "Point", "coordinates": [103.8349551, 1.3522267]}, "properties": {"name": "ASHFORD DENTAL CENTRE", "formatted_address": "215 Upper Thomson Rd, Singapore 574349", "lat": 1.3522267, "lng": 103.8349551, "place_id": "ChIJfeQgXzoX2jERc2cS-GaqeHs", "icon": "hospital"}}, {"type": "Feature", "geometry": {"type": "Point", "coordinates": [103.8765665, 1.3532581]}, "properties": {"name": "ASHFORD DENTAL CENTRE SERANGOON", "formatted_address": "15 Teck Chye Terrace, Singapore 545723", "lat": 1.3532581, "lng": 103.8765665, "place_id": "ChIJUUrSk44X2jERzoRDOI4MbG0", "icon": "hospital"}}, {"type": "Feature", "geometry": {"type": "Point", "coordinates": [103.8441851, 1.3221332]}, "properties": {"name": "ASIA EYE CENTRE CATARACT & RETINA SPECIALIST", "formatted_address": "Mount Elizabeth Novena Specialist Centre, 38 Irrawaddy Rd, #09-22, Singapore 329563", "lat": 1.3221332, "lng": 103.8441851, "place_id": "ChIJkxQZrOAZ2jER3RNNOsQ2iAk", "icon": "hospital"}}, {"type": "Feature", "geometry": {"type": "Point", "coordinates": [103.8330591, 1.3038012]}, "properties": {"name": "ASIA HEALTHCARE DENTAL CENTRE", "formatted_address": "Wisma Atria Office Tower, 435 Orchard Road, 15-02/03, Singapore 238877", "lat": 1.3038012, "lng": 103.8330591, "place_id": "ChIJCw7FB5IZ2jERlfoj0i-BT6s", "icon": "hospital"}}, {"type": "Feature", "geometry": {"type": "Point", "coordinates": [103.8340344, 1.3045755]}, "properties": {"name": "ASIA HEALTHPARTNERS", "formatted_address": "304, #05-06 Orchard Rd, Lucky Plaza, Singapore 238863", "lat": 1.3045755, "lng": 103.8340344, "place_id": "ChIJHXFAbZIZ2jERpoy2eJWjptw", "icon": "hospital"}}, {"type": "Feature", "geometry": {"type": "Point", "coordinates": [103.733758, 1.3449493]}, "properties": {"name": "ASIA KIDNEY DIALYSIS CENTRE  (JURONG)", "formatted_address": "1 Jurong East Street 32, BLK 303, Singapore", "lat": 1.3449493, "lng": 103.733758, "place_id": "EisxIEp1cm9uZyBFYXN0IFN0cmVldCAzMiwgQkxLIDMwMywgU2luZ2Fwb3JlIicaJQoaEhgKFAoSCWsAGkcfENoxEYI4uQwoe5WfEAESB0JMSyAzMDM", "icon": "hospital"}}, {"type": "Feature", "geometry": {"type": "Point", "coordinates": [103.9259902, 1.3334035]}, "properties": {"name": "ASIA KIDNEY DIALYSIS CENTRE (BEDOK) PTE LTD", "formatted_address": "531 Bedok North Street 3, #01-702, Singapore 640531", "lat": 1.3334035, "lng": 103.9259902, "place_id": "ChIJ3zL81E892jERvmahTfBMstY", "icon": "hospital"}}, {"type": "Feature", "geometry": {"type": "Point", "coordinates": [103.9443121, 1.3469753]}, "properties": {"name": "ASIA KIDNEY DIALYSIS CENTRE (TAMPINES) PTE LTD", "formatted_address": "132 Tampines Street 11, Block 139, Singapore 521130, Singapore 521139", "lat": 1.3469753, "lng": 103.9443121, "place_id": "ChIJHTK8Yj092jERWBFS252NdJs", "icon": "hospital"}}, {"type": "Feature", "geometry": {"type": "Point", "coordinates": [103.9443121, 1.3469753]}, "properties": {"name": "ASIA KIDNEY DIALYSIS CENTRE (TAMPINES) PTE LTD", "formatted_address": "132 Tampines Street 11, Block 139, Singapore 521130, Singapore 521139", "lat": 1.3469753, "lng": 103.9443121, "place_id": "ChIJHTK8Yj092jERWBFS252NdJs", "icon": "hospital"}}, {"type": "Feature", "geometry": {"type": "Point", "coordinates": [103.7556637, 1.3775575]}, "properties": {"name": "ASIA KIDNEY DIALYSIS CENTRE (TECK WHYE)", "formatted_address": "26 Teck Whye Ln, Block 26, Singapore 680026", "lat": 1.3775575, "lng": 103.7556637, "place_id": "ChIJachyI7kR2jERzAwFPQNk7wg", "icon": "hospital"}}, {"type": "Feature", "geometry": {"type": "Point", "coordinates": [103.952521, 1.361307]}, "properties": {"name": "ASIA KIDNEY DIALYSIS CENTRE (TP)", "formatted_address": "484 Tampines Street 43, Singapore 520484", "lat": 1.361307, "lng": 103.952521, "place_id": "ChIJUyHwAwc92jERM9G83VBJQSE", "icon": "hospital"}}, {"type": "Feature", "geometry": {"type": "Point", "coordinates": [103.8446984, 1.3386263]}, "properties": {"name": "ASIA KIDNEY DIALYSIS CENTRE (TPY)", "formatted_address": "124 Lor 1 Toa Payoh, #01-483, Singapore 310124", "lat": 1.3386263, "lng": 103.8446984, "place_id": "ChIJrfF8eUIX2jERy9js7fGicnM", "icon": "hospital"}}, {"type": "Feature", "geometry": {"type": "Point", "coordinates": [103.8199852, 1.3076543]}, "properties": {"name": "ASIA PACIFIC EYE CENTRE", "formatted_address": "Gleneagles Hospital, Level 3 Hospital Block, 6A Napier Rd, Singapore 258500", "lat": 1.3076543, "lng": 103.8199852, "place_id": "ChIJEeIDJSAa2jERt67SA0pvxL4", "icon": "hospital"}}, {"type": "Feature", "geometry": {"type": "Point", "coordinates": [103.8355763, 1.3039054]}, "properties": {"name": "ASIA RETINA EYE SURGERY CENTRE", "formatted_address": "#15-10 The Paragon, 290 Orchard Rd, Singapore 238859", "lat": 1.3039054, "lng": 103.8355763, "place_id": "ChIJY_Jur2UZ2jERd32B8He7OD8", "icon": "hospital"}}, {"type": "Feature", "geometry": {"type": "Point", "coordinates": [103.836184, 1.30451]}, "properties": {"name": "ASIA SLEEP CENTRE", "formatted_address": "290 Orchard Rd, #18-04, Singapore 238859", "lat": 1.30451, "lng": 103.836184, "place_id": "ChIJQXgwMb0Z2jERYuxLtBAPz1k", "icon": "hospital"}}, {"type": "Feature", "geometry": {"type": "Point", "coordinates": [103.8317094, 1.3058292]}, "properties": {"name": "ASIAMEDIC WELLNESS ASSESSMENT CENTRE", "formatted_address": "#08-00 Shaw House, 350 Orchard Rd, Singapore 238868", "lat": 1.3058292, "lng": 103.8317094, "place_id": "ChIJjWaJoI0Z2jER9M2tbuCAZWE", "icon": "hospital"}}, {"type": "Feature", "geometry": {"type": "Point", "coordinates": [103.820047, 1.307408]}, "properties": {"name": "ASIAN AMERICAN LIVER CENTRE", "formatted_address": "02-37, 6A Napier Road, Gleneagles Hospital Annexe Block, Singapore 258500", "lat": 1.307408, "lng": 103.820047, "place_id": "ChIJK_0DJSAa2jERgquCNGeLg18", "icon": "hospital"}}, {"type": "Feature", "geometry": {"type": "Point", "coordinates": [103.8199212, 1.3075913]}, "properties": {"name": "ASIAN AMERICAN RADIATION & ONCOLOGY", "formatted_address": "02-37, 6A Napier Road, Gleneagles Hospital Annexe Block, Singapore 258500", "lat": 1.3075913, "lng": 103.8199212, "place_id": "ChIJTcmDPiAa2jERtHZWye5dFNE", "icon": "hospital"}}, {"type": "Feature", "geometry": {"type": "Point", "coordinates": [103.8540597, 1.3127719]}, "properties": {"name": "ASIAN AMERICAN RADIATION & ONCOLOGY", "formatted_address": "Farrer Park Hospital, Radiation Oncology Suite, Level 3, Singapore 217562", "lat": 1.3127719, "lng": 103.8540597, "place_id": "ChIJTRdRECMZ2jER_7RI38mU-gM", "icon": "hospital"}}, {"type": "Feature", "geometry": {"type": "Point", "coordinates": [103.8441678, 1.322169]}, "properties": {"name": "ASIAN AMERICAN RADIATION & ONCOLOGY PTE LTD", "formatted_address": "06-33, 38 Irrawaddy Road, Mount Elizabeth Novena Specialist Centre, Singapore 329563", "lat": 1.322169, "lng": 103.8441678, "place_id": "ChIJF4ALruAZ2jER0cQMghGz1zE", "icon": "hospital"}}, {"type": "Feature", "geometry": {"type": "Point", "coordinates": [103.837378, 1.341697]}, "properties": {"name": "ASIAN AMERICAN RADIATION & ONCOLOGY PTE. LTD.", "formatted_address": "#08-53, 820 Thomson Road,, Mount Alvernia Hospital, Medical Centre D, Singapore 574623", "lat": 1.341697, "lng": 103.837378, "place_id": "ChIJlehceSYX2jERccTQmMfBjIM", "icon": "hospital"}}, {"type": "Feature", "geometry": {"type": "Point", "coordinates": [103.835921, 1.305898]}, "properties": {"name": "ASIAN HEART & VASCULAR CENTRE", "formatted_address": "3 Mount Elizabeth, #17-08, #16-07 Medical Centre, Singapore 228510", "lat": 1.305898, "lng": 103.835921, "place_id": "ChIJdY5L_JIZ2jERlizbXA6FQ4s", "icon": "hospital"}}, {"type": "Feature", "geometry": {"type": "Point", "coordinates": [103.8198871, 1.3076528]}, "properties": {"name": "ASIAN HEART & VASCULAR CENTRE", "formatted_address": "Gleneagles Annexe Block #01-39, 6A Napier Rd, Singapore 258500", "lat": 1.3076528, "lng": 103.8198871, "place_id": "ChIJj0VnOSAa2jERooipiCtPO14", "icon": "hospital"}}, {"type": "Feature", "geometry": {"type": "Point", "coordinates": [103.835921, 1.305898]}, "properties": {"name": "ASIAN HEART & VASCULAR CENTRE", "formatted_address": "3 Mount Elizabeth, #17-08, #16-07 Medical Centre, Singapore 228510", "lat": 1.305898, "lng": 103.835921, "place_id": "ChIJdY5L_JIZ2jERlizbXA6FQ4s", "icon": "hospital"}}, {"type": "Feature", "geometry": {"type": "Point", "coordinates": [103.8447881, 1.3590189]}, "properties": {"name": "ASPEN CLINIC", "formatted_address": "283 Bishan Street 22, #01-185, Singapore 570283", "lat": 1.3590189, "lng": 103.8447881, "place_id": "ChIJIUkbqhgX2jERuGi1fXJQeY0", "icon": "hospital"}}, {"type": "Feature", "geometry": {"type": "Point", "coordinates": [103.851393, 1.3336814]}, "properties": {"name": "ASSOCIATE DISPENSARIES", "formatted_address": "120 Lor 4 Toa Payoh, BLK 94, Singapore", "lat": 1.3336814, "lng": 103.851393, "place_id": "EiYxMjAgTG9yIDQgVG9hIFBheW9oLCBCTEsgOTQsIFNpbmdhcG9yZSImGiQKGhIYChQKEgmRHS_QZRfaMRF4emS31QVYTxB4EgZCTEsgOTQ", "icon": "hospital"}}, {"type": "Feature", "geometry": {"type": "Point", "coordinates": [103.7789302, 1.3204349]}, "properties": {"name": "ASSOCIATED DENTAL SURGERY", "formatted_address": "2 Pandan Valley, Singapore 597626", "lat": 1.3204349, "lng": 103.7789302, "place_id": "ChIJabmqUXwa2jERmkZAioetzjQ", "icon": "hospital"}}, {"type": "Feature", "geometry": {"type": "Point", "coordinates": [103.8966821, 1.3028707]}, "properties": {"name": "ASSURANCE MEDICARE CLINIC AND SURGERY", "formatted_address": "370 Tanjong Katong Rd, Singapore 437127", "lat": 1.3028707, "lng": 103.8966821, "place_id": "ChIJ1wNt_msY2jERAInNTyZp7tM", "icon": "hospital"}}, {"type": "Feature", "geometry": {"type": "Point", "coordinates": [103.844043, 1.322244]}, "properties": {"name": "ASSURANCE SKIN, LASER & AESTHETICS", "formatted_address": "Mount Elizabeth Novena Specialist Center #10-22 / 23, 38 Irrawaddy Rd, Singapore 329563", "lat": 1.322244, "lng": 103.844043, "place_id": "ChIJkxQZrOAZ2jERsQrvhvITYqk", "icon": "hospital"}}, {"type": "Feature", "geometry": {"type": "Point", "coordinates": [103.831583, 1.305678]}, "properties": {"name": "ASTIQUE THE AESTHETIC CLINIC", "formatted_address": "350, #08-00 Orchard Rd, Shaw House, Singapore 238868", "lat": 1.305678, "lng": 103.831583, "place_id": "ChIJJwtVCo0Z2jERZ4ugSdc6-sc", "icon": "hospital"}}, {"type": "Feature", "geometry": {"type": "Point", "coordinates": [103.844395, 1.322119]}, "properties": {"name": "ASTRA CENTRE FOR WOMEN & FERTILITY PTE LTD", "formatted_address": "38 Irrawaddy Rd, #05-40, Singapore 329563", "lat": 1.322119, "lng": 103.844395, "place_id": "ChIJZfYarOAZ2jERb_4ljVFjdXQ", "icon": "hospital"}}, {"type": "Feature", "geometry": {"type": "Point", "coordinates": [103.8355763, 1.3039054]}, "properties": {"name": "ASTRA LAPAROSCOPIC & ROBOTIC CENTRE FOR WOMEN AND FERTILITY", "formatted_address": "290 Orchard Rd, #16-07/08 Paragon Medical Centre, Singapore 238859", "lat": 1.3039054, "lng": 103.8355763, "place_id": "ChIJH7GqMZIZ2jERVjinvm4Ip3g", "icon": "hospital"}}, {"type": "Feature", "geometry": {"type": "Point", "coordinates": [103.8440425, 1.3222438]}, "properties": {"name": "ASTRA LAPAROSCOPIC & ROBOTIC CENTRE FOR WOMEN AND FERTILITY", "formatted_address": "38 Irrawaddy Road #05-21/22 Mount Elizabeth Novena Specialist Centre, Singapore 329563", "lat": 1.3222438, "lng": 103.8440425, "place_id": "ChIJs6vEseAZ2jERc83gU5d8pHw", "icon": "hospital"}}, {"type": "Feature", "geometry": {"type": "Point", "coordinates": [103.848342, 1.3486]}, "properties": {"name": "ASTRA WOMEN'S SPECIALIST CENTRE", "formatted_address": "502 Bishan Street 11, #01-356, Singapore 570502", "lat": 1.3486, "lng": 103.848342, "place_id": "ChIJFQthRhQX2jERbMA8zmFIgKw", "icon": "hospital"}}, {"type": "Feature", "geometry": {"type": "Point", "coordinates": [103.8871218, 1.3743447]}, "properties": {"name": "ASTRA WOMEN'S SPECIALIST CENTRE", "formatted_address": "684 Hougang Ave 8, #01-981, Singapore 530684", "lat": 1.3743447, "lng": 103.8871218, "place_id": "ChIJVVVVBUYW2jERNIALIaqTUv8", "icon": "hospital"}}, {"type": "Feature", "geometry": {"type": "Point", "coordinates": [103.7372537, 1.3439357]},